%time,field.header.seq,field.header.stamp,field.header.frame_id,field.pose.position.x,field.pose.position.y,field.pose.position.z,field.pose.orientation.x,field.pose.orientation.y,field.pose.orientation.z,field.pose.orientation.w
1649348648898770547,162005,1649348648859687942,world,0.0242218170315,0.00374252465554,0.372348427773,0.0338488332927,-0.0555740334094,-0.00280516617931,0.997876763344
1649348648898783755,162006,1649348648859723064,world,0.0239417795092,0.00426343129948,0.372188001871,0.028534470126,-0.0487497784197,-0.00116509280633,0.998402655125
1649348648898802409,162007,1649348648862051055,world,0.0251848734915,0.0047017224133,0.370864152908,0.02116044797,-0.0315952524543,0.000664606166538,0.999276518822
1649348648905635470,162008,1649348648869423977,world,0.026604115963,0.00536617543548,0.372114151716,0.0252603366971,-0.0427998192608,-0.0188993476331,0.99858546257
1649348648915841432,162009,1649348648876928562,world,0.0249414425343,0.00323532707989,0.372438549995,0.0415365882218,-0.0473989024758,-0.000914235773962,0.99801170826
1649348648919575791,162010,1649348648886114024,world,0.0254756566137,0.00334225734696,0.37143650651,0.023763647303,-0.0533122196794,-0.00367171992548,0.998288393021
1649348648919590572,162011,1649348648886154075,world,0.0242742244154,0.0040647527203,0.370393514633,0.0169080998749,-0.0462337769568,-0.00911124795675,0.998746037483
1649348648923166184,162012,1649348648892488815,world,0.0259113069624,0.00456284545362,0.371336817741,0.0141153605655,-0.049899302423,-0.00779123883694,0.998624145985
1649348648931450512,162013,1649348648901241580,world,0.0247962940484,0.0048471596092,0.371790617704,0.0228674281389,-0.0469410456717,-0.00684357667342,0.998612463474
1649348648934779607,162014,1649348648903043665,world,0.0238188169897,0.00344205950387,0.372233003378,0.0260061882436,-0.0775519907475,-0.00340817403048,0.99664324522
1649348648938756262,162015,1649348648909285675,world,0.025472721085,0.00427144952118,0.372566342354,0.0231954008341,-0.0634371489286,-0.00631868932396,0.997696280479
1649348648951255133,162016,1649348648917138366,world,0.0266512092203,0.00379603100009,0.371422320604,0.0224368087947,-0.0505467131734,-0.0155267333612,0.998348891735
1649348648954478427,162017,1649348648925269242,world,0.0253766402602,0.00555137731135,0.372062534094,0.0225094109774,-0.0365879274905,-0.0115645593032,0.99900996685
1649348648958166736,162018,1649348648928493842,world,0.0255438387394,0.00420193374157,0.372485786676,0.0234674066305,-0.0758402273059,-0.0186901707202,0.996668636799
1649348648962431537,162019,1649348648932580103,world,0.0238549932837,0.00432207435369,0.371952205896,0.0246391985565,-0.0515106134117,-0.0014695529826,0.99836742878
1649348648972697024,162020,1649348648942056801,world,0.02452336438,0.00506848609075,0.372923731804,0.032476183027,-0.0455513745546,-0.00727755576372,0.998407423496
1649348648996730474,162021,1649348648965059754,world,0.0242042206228,0.00396640878171,0.370736896992,0.0190591774881,-0.0329539477825,-0.0219560023397,0.999033927917
1649348649008452740,162022,1649348648965149718,world,0.0245676580817,0.00173089362215,0.370481610298,0.0246635135263,-0.0324720852077,-0.0182057581842,0.999002456665
1649348649008489198,162023,1649348648965180780,world,0.0250562112778,0.00398559076712,0.370414614677,0.0108165862039,-0.0550183914602,-0.0101194893941,0.998375475407
1649348649008499441,162024,1649348648971779941,world,0.0237367786467,0.00294899335131,0.372621029615,0.0395981669426,-0.0746129453182,-0.000643041566946,0.996425926685
1649348649011309759,162025,1649348648973282063,world,0.0235551632941,0.00383263477124,0.372361451387,0.0314651690423,-0.0606023743749,0.000628411653452,0.997665822506
1649348649011337647,162026,1649348648974261671,world,0.0257418118417,0.0036486973986,0.370435297489,0.00803527794778,-0.0440830811858,-0.0184068772942,0.998825967312
1649348649011361856,162027,1649348648981674156,world,0.0241195950657,0.00365841225721,0.372165203094,0.0293736793101,-0.0465018004179,-0.0067379088141,0.998463571072
1649348649016590845,162028,1649348648986879004,world,0.0256861560047,0.00191304634791,0.372017621994,0.0427655614913,-0.0584923066199,-0.00954303890467,0.997325837612
1649348649056002669,162029,1649348649025946490,world,0.0258618611842,0.00615473929793,0.371684849262,0.0171350967139,-0.0336677953601,-0.00945845618844,0.999241411686
1649348649059524004,162030,1649348649026065864,world,0.0254180431366,0.00450262939557,0.371593594551,0.0106661757454,-0.0607959590852,-0.0188843719661,0.997914552689
1649348649059549868,162031,1649348649026209554,world,0.0249095596373,0.000994756119326,0.371328651905,0.0215031169355,-0.0209225844592,-0.0382613763213,0.998817265034
1649348649059556682,162032,1649348649026239712,world,0.0239612609148,0.00549885537475,0.372500032187,0.0330904126167,-0.042993567884,-0.00289957551286,0.998523056507
1649348649059601526,162033,1649348649026278995,world,0.0251176077873,0.00479149306193,0.370422840118,0.0140267722309,-0.024551153183,0.0103751970455,0.999546408653
1649348649059644185,162034,1649348649026319263,world,0.0242702681571,0.00379511504434,0.372126668692,0.0342300273478,-0.0698805600405,-0.0035987359006,0.996961414814
1649348649059660829,162035,1649348649028002340,world,0.0239107701927,0.00538775883615,0.372813552618,0.0337867029011,-0.0507327951491,-0.00257780705579,0.998137295246
1649348649063692899,162036,1649348649033851374,world,0.0248180087656,0.00561088696122,0.371270120144,0.0135995913297,-0.0320559293032,-0.00659993337467,0.999371767044
1649348649070377522,162037,1649348649039455489,world,0.0240215044469,0.00352974585257,0.372568786144,0.0375435613096,-0.0795516371727,-0.00251806899905,0.996120333672
1649348649077818285,162038,1649348649047982877,world,0.0264022368938,0.00443627173081,0.372075498104,0.0285793617368,-0.0484169982374,-0.00631608767435,0.99839836359
1649348649084202265,162039,1649348649051154633,world,0.0227783471346,0.0038657176774,0.371695667505,0.0334955304861,-0.0516961701214,0.0112627018243,0.998037517071
1649348649087612907,162040,1649348649057135622,world,0.0238426607102,0.0036929375492,0.371106207371,0.0323251709342,-0.0727502033114,0.00337163102813,0.996820569038
1649348649093998045,162041,1649348649064099236,world,0.0254497416317,0.0045757801272,0.371541827917,0.0242175832391,-0.0553774684668,-0.00159174576402,0.998170554638
1649348649098651621,162042,1649348649068913042,world,0.0253275763243,0.00374429160729,0.372255027294,0.0296153333038,-0.0471096411347,0.00331802549772,0.998445093632
1649348649104951272,162043,1649348649075346846,world,0.0245603080839,0.00530789606273,0.371280193329,0.0128675438464,-0.0279342979193,-0.00227870745584,0.999524354935
1649348649110284738,162044,1649348649080826562,world,0.0239417683333,0.00421902537346,0.372361212969,0.031096175313,-0.0580149590969,-0.0010607377626,0.997830748558
1649348649116139822,162045,1649348649086659101,world,0.0267268437892,0.00386284873821,0.370489478111,0.0236945413053,-0.0613706409931,-0.0250951703638,0.997518241405
1649348649127254487,162046,1649348649092707139,world,0.0269500538707,0.00339528080076,0.370006412268,0.00926442351192,-0.0566339045763,-0.0175733603537,0.998197436333
1649348649136097546,162047,1649348649102481658,world,0.0269363056868,0.00266498723067,0.370070874691,0.0207191612571,-0.0716188848019,-0.0109672620893,0.997156620026
1649348649136249287,162048,1649348649106115398,world,0.0248381495476,0.0047021326609,0.372614532709,0.0304855871946,-0.038665253669,-0.00574131030589,0.998770594597
1649348649140666895,162049,1649348649110227648,world,0.0267437826842,0.00287471269257,0.371927589178,0.0248106494546,-0.0323169380426,-0.0151008628309,0.999055624008
1649348649147199258,162050,1649348649117287958,world,0.0240052230656,0.00319389719516,0.37229681015,0.0378829464316,-0.0655790418386,-0.00232805055566,0.997125267982
1649348649155653498,162051,1649348649125103862,world,0.0235898587853,0.00275141769089,0.372463643551,0.0403817892075,-0.0814947038889,-0.000741155876312,0.995855152607
1649348649159332882,162052,1649348649128757110,world,0.025072241202,0.00592739181593,0.371164768934,-0.00273547251709,-0.0307858027518,-0.0236827358603,0.999241650105
1649348649164061696,162053,1649348649134149974,world,0.0250594150275,0.00531704491004,0.37199485302,0.0241759512573,-0.0350463688374,-0.0153883211315,0.998974740505
1649348649170379476,162054,1649348649140068041,world,0.0251320060343,0.00561416940764,0.372177124023,0.0233150497079,-0.0433555133641,-0.00917834974825,0.998745560646
1649348649176294314,162055,1649348649146883471,world,0.0234271157533,0.00424213893712,0.371991246939,0.0281605031341,-0.0326699614525,0.000486492062919,0.999069273472
1649348649181361296,162056,1649348649151882383,world,0.0243678297848,0.00619843089953,0.369899839163,0.00620375946164,-0.028686882928,-0.0102471299469,0.99951672554
1649348649188423541,162057,1649348649157802181,world,0.026190513745,0.00481321569532,0.371162265539,0.00638730218634,-0.0249765366316,-0.00199836143292,0.999665617943
1649348649194675950,162058,1649348649164626303,world,0.0249358583242,0.00551263429224,0.370605498552,0.000307070935378,-0.0348062179983,-0.0139340814203,0.999296963215
1649348649200068155,162059,1649348649170248684,world,0.0252406746149,0.00438061915338,0.371108949184,0.00858514942229,-0.0417094193399,-0.0195296760648,0.998902022839
1649348649205407442,162060,1649348649175793578,world,0.0236386097968,0.0031300263945,0.372617393732,0.0393790863454,-0.0847639515996,-0.000771653081756,0.99562227726
1649348649211177034,162061,1649348649181565248,world,0.0250533036888,0.00521032279357,0.372261911631,0.0219896659255,-0.0342151001096,-0.00190956657752,0.999170720577
1649348649217515221,162062,1649348649187412612,world,0.0254929158837,0.00495997304097,0.372294634581,0.0229839216918,-0.0536931306124,-0.0142272384837,0.998191535473
1649348649246114777,162063,1649348649195018669,world,0.0250999908894,0.00368321733549,0.369178801775,0.00512053677812,-0.0488231703639,-0.00968435499817,0.998747467995
1649348649260976812,162064,1649348649228691464,world,0.0236744489521,0.00236138119362,0.372580379248,0.0400162339211,-0.0803834497929,-4.30059117207e-05,0.995960474014
1649348649260998718,162065,1649348649228776312,world,0.0241663828492,0.00327739492059,0.372189313173,0.0378254987299,-0.0579394288361,-0.00238978653215,0.997600376606
1649348649261012281,162066,1649348649228805267,world,0.0233242753893,0.00259906542487,0.372707664967,0.0390687696636,-0.0907665938139,2.18910008698e-05,0.995105564594
1649348649261030230,162067,1649348649228835577,world,0.0249219685793,0.00125743227545,0.371531575918,0.02595346421,-0.0396219491959,-0.0112939970568,0.998813807964
1649348649261042712,162068,1649348649229168968,world,0.024414755404,0.00375051260926,0.369798481464,-0.00991732254624,-0.0469928868115,-0.0285013765097,0.998439371586
1649348649261081201,162069,1649348649229255612,world,0.0256699230522,0.00505493674427,0.371955573559,0.0103026768193,-0.0467065870762,-0.0381347537041,0.998127281666
1649348649264971502,162070,1649348649234869877,world,0.0236738752574,0.00381156010553,0.372780621052,0.0368334874511,-0.0749780833721,-0.000549208605662,0.996504545212
1649348649270171641,162071,1649348649240593119,world,0.0247195027769,0.00381886400282,0.372626036406,0.0259215999395,-0.0436830185354,-0.0151764033362,0.99859380722
1649348649278751754,162072,1649348649248530152,world,0.0248702112585,0.00528853526339,0.370082825422,0.00126045907382,-0.0284546017647,-0.00126496783923,0.999593555927
1649348649283165336,162073,1649348649253359348,world,0.0237354319543,0.00414191791788,0.373061150312,0.0293094012886,-0.085451669991,-0.00263952929527,0.995907723904
1649348649295586846,162074,1649348649260017786,world,0.0241805948317,0.00560465082526,0.372152119875,0.0279481764883,-0.0247994121164,-0.0141436113045,0.999201595783
1649348649298714827,162075,1649348649266534780,world,0.0269201919436,0.00341841531917,0.372736394405,0.0302554834634,-0.0318766087294,-0.0130663271993,0.998948395252
1649348649303372611,162076,1649348649269962453,world,0.0260713826865,0.00535352854058,0.371214479208,0.0111942011863,-0.029959673062,-0.00766655802727,0.999459028244
1649348649306744489,162077,1649348649276908649,world,0.0245880577713,0.00371101102792,0.367845058441,-0.0136963240802,-0.0383988507092,-0.0105348704383,0.999113082886
1649348649312510316,162078,1649348649282486183,world,0.0250672865659,0.00524372421205,0.372784942389,0.0244918465614,-0.0490452200174,-0.00948932860047,0.99845123291
1649348649318743703,162079,1649348649287929045,world,0.023835958913,0.00332248094492,0.372699856758,0.037964541465,-0.0749013349414,-0.00122214923613,0.996467351913
1649348649352687299,162080,1649348649321609744,world,0.0237338747829,0.00264514680021,0.373496204615,0.00168407103047,-0.0054473974742,-0.0346985273063,0.999381661415
1649348649364555142,162081,1649348649321696963,world,0.0261819828302,0.00454089604318,0.370500862598,0.0176766831428,-0.0678174570203,-0.0210126172751,0.997319817543
1649348649364687524,162082,1649348649321706545,world,0.0257116369903,0.0051255999133,0.372672319412,0.0329499430954,-0.0483075939119,-0.0104750087485,0.998233914375
1649348649364711346,162083,1649348649321716733,world,0.0262640621513,0.00434088567272,0.372717946768,0.0251804031432,-0.0420067384839,-0.0132533637807,0.998712003231
1649348649364726779,162084,1649348649321727127,world,0.0264374986291,0.0026076529175,0.371486127377,0.0301352329552,-0.0417856015265,-0.0154869575053,0.99855196476
1649348649364792070,162085,1649348649324149252,world,0.0247303526849,0.0047106333077,0.371394097805,0.021069329232,-0.0481172055006,-0.00515997689217,0.998606145382
1649348649364801515,162086,1649348649329212813,world,0.025454569608,0.00558329001069,0.372260421515,0.0225711166859,-0.0387245491147,-0.00777830230072,0.998964726925
1649348649367754458,162087,1649348649335834749,world,0.0245209876448,0.00449604354799,0.373765766621,0.0346654616296,-0.0595091730356,-0.00729267532006,0.997599065304
1649348649372285001,162088,1649348649342807117,world,0.0248490832746,0.00426297914237,0.372784972191,0.0327173508704,-0.0508247613907,-0.00598095497116,0.998153686523
1649348649377252282,162089,1649348649347575685,world,0.0244081337005,0.00382695044391,0.372285366058,0.035586938262,-0.0513923950493,-0.00301017309539,0.998039782047
1649348649383095824,162090,1649348649353005522,world,0.0249298531562,0.00358493137173,0.369000852108,-0.0117417341098,-0.0374164357781,-0.0180563218892,0.999067664146
1649348649391073309,162091,1649348649361365591,world,0.0252649467438,0.00503201410174,0.372299611568,0.0169834494591,-0.0871141180396,-0.00794199295342,0.996021986008
1649348649395963927,162092,1649348649365243217,world,0.0255511142313,0.00627182563767,0.370889782906,0.0118535943329,-0.0236139409244,-0.00500466302037,0.999638438225
1649348649400194358,162093,1649348649370605855,world,0.0244098324329,0.00766401132569,0.371069580317,0.0185804050416,-0.0432193987072,0.00175618578214,0.998891234398
1649348649406376639,162094,1649348649376895249,world,0.0253696944565,0.00462806597352,0.367700219154,-0.000915143580642,-0.050706859678,-0.00152682268526,0.998712003231
1649348649413720222,162095,1649348649383294390,world,0.0240362267941,0.00394011102617,0.372563034296,0.0340389162302,-0.0599020719528,-0.00230465037748,0.997621119022
1649348649419383446,162096,1649348649388983876,world,0.0248507261276,0.00403508823365,0.371129989624,-0.0120937954634,-0.0395014882088,-0.0263203997165,0.998799681664
1649348649471243588,162097,1649348649440552074,world,0.0245621893555,0.00442114844918,0.371587723494,0.0261369124055,-0.0568695105612,0.00102512200829,0.998038947582
1649348649475612895,162098,1649348649442000457,world,0.0253692213446,0.00295346905477,0.37006932497,-0.00275135226548,-0.0278769228607,-0.0251903180033,0.999290168285
1649348649475645615,162099,1649348649442046763,world,0.0243280548602,0.00235805707052,0.371532976627,0.0302837528288,-0.0435662269592,-0.00906942784786,0.99855029583
1649348649475672406,162100,1649348649442070411,world,0.0259755030274,0.00678517157212,0.368948608637,0.0101798381656,-0.0241520237178,0.00245409971103,0.9996535182
1649348649475690646,162101,1649348649442098057,world,0.0257969815284,0.00351667962968,0.369431763887,0.00204336689785,-0.0470355041325,-0.0153947053477,0.998772501945
1649348649475713388,162102,1649348649442135609,world,0.0254040695727,0.00371242151596,0.372584998608,0.0312035586685,-0.0504057966173,-0.025674154982,0.997911036015
1649348649475727257,162103,1649348649442236545,world,0.0245249588042,0.00494255125523,0.372980922461,0.0290830396116,-0.0474232546985,-0.00557160098106,0.998435854912
1649348649475739270,162104,1649348649442260161,world,0.0254910495132,0.00506940530613,0.372422665358,0.0176926311105,-0.0407127030194,-0.00978112965822,0.99896633625
1649348649475858701,162105,1649348649442361870,world,0.0238191783428,0.00417637918144,0.372281759977,0.0318130142987,-0.0554415769875,-0.000420384807512,0.997954964638
1649348649478628339,162106,1649348649448976512,world,0.0243908576667,0.0055800001137,0.3682282269,-0.0124309277162,-0.061308644712,-0.0178185906261,0.997882425785
1649348649485216814,162107,1649348649453487483,world,0.0238849949092,0.00343647948466,0.372352004051,0.0386202819645,-0.0870203226805,-0.00216825446114,0.995455265045
1649348649493238968,162108,1649348649460301080,world,0.0239061303437,0.00275452435017,0.372075438499,0.0398775823414,-0.0670275092125,-0.00161524955183,0.996952652931
1649348649498699332,162109,1649348649465737927,world,0.0249920487404,0.00380128156394,0.370726078749,0.0203283485025,-0.0511974282563,-0.00454878993332,0.99847137928
1649348649504923707,162110,1649348649474203233,world,0.026442784816,0.0042260857299,0.371979922056,0.0332420766354,-0.0457036532462,-0.00999705959111,0.998351752758
1649348649508110765,162111,1649348649477787026,world,0.0240787435323,0.00384574383497,0.372793704271,0.0335801020265,-0.0573945119977,-0.00206274958327,0.997784554958
1649348649512827326,162112,1649348649483091134,world,0.0237728338689,0.00619602994993,0.372776389122,0.0281966347247,-0.0267590787262,-0.0112072313204,0.999181330204
1649348649521299682,162113,1649348649490530950,world,0.024906815961,0.00662099802867,0.371250480413,0.0160072743893,-0.0318964160979,-0.0130622601137,0.99927765131
1649348649528226824,162114,1649348649495970951,world,0.025305794552,0.00470391102135,0.3721357584,0.0289921220392,-0.0499753579497,-0.00820221751928,0.998295903206
1649348649533433655,162115,1649348649503080065,world,0.0262908693403,0.00373916258104,0.369753271341,0.00650124112144,-0.0291132815182,-0.00732964696363,0.999528169632
1649348649543496268,162116,1649348649506640145,world,0.0247293058783,0.004584049806,0.37253049016,0.0278881769627,-0.0392661169171,-0.00596132827923,0.998821794987
1649348649551159184,162117,1649348649516888323,world,0.0247432999313,0.00523213623092,0.37353760004,0.0270383004099,-0.0987797006965,-0.0058596865274,0.994724690914
1649348649551175428,162118,1649348649519076637,world,0.0240438114852,0.00348407868296,0.372456729412,0.0381845124066,-0.0603803396225,-0.00186450069305,0.997443079948
1649348649555254739,162119,1649348649525205559,world,0.024282598868,0.00456799566746,0.371935397387,0.0216747447848,-0.0747022479773,-0.00517894327641,0.996956944466
1649348649563030629,162120,1649348649530721364,world,0.0246665272862,0.00465142680332,0.371164560318,0.00636230641976,-0.0624778680503,-0.00610789749771,0.998007357121
1649348649570554966,162121,1649348649536438389,world,0.02486708574,0.00404120609164,0.370569884777,0.0135174924508,-0.0263668447733,-0.00960851926357,0.999514818192
1649348649576551883,162122,1649348649544104799,world,0.0251834969968,0.00670579401776,0.371968060732,0.019703309983,-0.0338369756937,-0.0127547457814,0.9991517663
1649348649579224343,162123,1649348649548902424,world,0.0245002117008,0.00445561157539,0.370548337698,0.0186538230628,-0.0439702495933,-0.0150522626936,0.998745262623
1649348649584227340,162124,1649348649554234490,world,0.025103090331,0.00403570942581,0.369990199804,0.0116015393287,-0.0489921122789,-0.0150039000437,0.998619139194
1649348649590156892,162125,1649348649559829667,world,0.0251050516963,0.00431324355304,0.36927241087,0.0053039859049,-0.0369723848999,-0.00114118563943,0.999301612377
1649348649597484891,162126,1649348649567453710,world,0.0256404466927,0.0058447769843,0.371666163206,0.0176121778786,-0.0392408147454,-0.0242216102779,0.9987809062
1649348649603999521,162127,1649348649574026560,world,0.0252278447151,0.00433358270675,0.373333781958,0.0368739999831,-0.0599008351564,-0.00883990339935,0.99748390913
1649348649609467962,162128,1649348649579926520,world,0.0246495343745,0.00492874579504,0.373589009047,0.0360401794314,-0.0580195710063,-0.0114375976846,0.997599184513
1649348649613493206,162129,1649348649583826957,world,0.0239718537778,0.00218862039037,0.368914157152,0.0221566725522,-0.0699052512646,-0.0155916269869,0.997185647488
1649348649619612237,162130,1649348649590107423,world,0.0259403306991,0.00419074296951,0.371664255857,0.0178739838302,-0.040641002357,-0.0177964065224,0.998855471611
1649348649627086933,162131,1649348649595401743,world,0.0250214859843,0.00455342838541,0.371620893478,0.0154817150906,-0.0428447686136,-0.00597068108618,0.998943984509
1649348649649144464,162132,1649348649617925040,world,0.0236764159054,0.0040268949233,0.372433185577,0.0312901996076,-0.0596712119877,0.000188045421964,0.997727513313
1649348649661531924,162133,1649348649618002748,world,0.0238110423088,0.00605205120519,0.372056394815,0.0245543029159,-0.0335216782987,0.00144768436439,0.999135315418
1649348649666636704,162134,1649348649631087691,world,0.0251949504018,0.00523486966267,0.372489720583,0.0226303189993,-0.0503047406673,-0.0104560311884,0.998422801495
1649348649666665200,162135,1649348649631161061,world,0.0257169175893,0.00462229503319,0.370485752821,0.00751309655607,-0.0407379642129,-0.0208135414869,0.998924851418
1649348649666708934,162136,1649348649632517022,world,0.02491411753,0.00597106385976,0.371035814285,0.0206643752754,-0.0274708382785,-0.00405046250671,0.999400794506
1649348649670677349,162137,1649348649637387285,world,0.0240551009774,0.00376978586428,0.372676342726,0.0346056893468,-0.0724093392491,-0.00102456158493,0.996774017811
1649348649676412271,162138,1649348649643734679,world,0.0236993450671,0.00355394813232,0.368361145258,-0.00800965819508,-0.0252805389464,-0.00968360714614,0.99960142374
1649348649679830450,162139,1649348649649394499,world,0.0248162522912,0.00463934661821,0.372534692287,0.0302804447711,-0.0382436625659,-0.00608199741691,0.99879103899
1649348649685141463,162140,1649348649654824456,world,0.025296960026,0.00257622543722,0.371897101402,0.0286937635392,-0.0302106756717,-0.0185031723231,0.998960375786
1649348649691829033,162141,1649348649662133557,world,0.0270149800926,0.00337046058849,0.370654433966,0.0172114633024,-0.0522508136928,-0.0211407449096,0.998261868954
1649348649698987459,162142,1649348649669390819,world,0.0243972428143,0.00487109087408,0.372754126787,0.0294523295015,-0.0334803462029,-0.00334417656995,0.998999774456
1649348649703064189,162143,1649348649673410219,world,0.0247916206717,0.00438579590991,0.372266292572,0.0262436829507,-0.0657750368118,-0.00740106543526,0.997461855412
1649348649711624501,162144,1649348649681532533,world,0.0244878139347,0.00386182381772,0.37222674489,0.0359277501702,-0.0492204427719,-0.00331817753613,0.998136043549
1649348649714169791,162145,1649348649684371406,world,0.0230613369495,0.00403831619769,0.372293502092,0.0325021483004,-0.0488444827497,0.00766943348572,0.998247981071
1649348649720809668,162146,1649348649690292577,world,0.0253475885838,0.00601738179103,0.372650265694,0.0211090072989,-0.0510590076447,-0.00831498391926,0.998438000679
1649348649726941561,162147,1649348649696109463,world,0.0241185519844,0.00369545537978,0.372397691011,0.0344094596803,-0.0543432794511,-0.00240563857369,0.997926414013
1649348649731669939,162148,1649348649702044158,world,0.024538481608,0.00508934305981,0.373898476362,0.0267810858786,-0.0888421833515,-0.00381873454899,0.995678305626
1649348649737833214,162149,1649348649708129287,world,0.0237894076854,0.00426307832822,0.372561842203,0.0299805868417,-0.0589855983853,-0.000982641242445,0.997808039188
1649348649748451838,162150,1649348649715106787,world,0.0259713958949,0.0047420184128,0.372663408518,0.0290181450546,-0.0435701906681,-0.0176220647991,0.998473465443
1649348649752345181,162151,1649348649719749033,world,0.0251573361456,0.00421549985185,0.370983809233,0.0264197085053,-0.0457112565637,-0.0110925231129,0.998543679714
1649348649756198348,162152,1649348649726485363,world,0.02599738352,0.00465327687562,0.372757822275,0.0268693957478,-0.0468769110739,-0.0115408049896,0.998472571373
1649348649761458505,162153,1649348649731809442,world,0.0256171580404,0.00672943983227,0.371748536825,0.0157489944249,-0.029902677983,-0.0119451833889,0.99935734272
1649348649769203997,162154,1649348649739627863,world,0.023408960551,0.0040398677811,0.371367663145,0.0310839302838,-0.0646415278316,0.00441065244377,0.997414588928
1649348649773802580,162155,1649348649744136683,world,0.024157397449,0.00547488545999,0.369312912226,-0.014909860678,-0.0260554943234,-0.00807111896574,0.999516785145
1649348649780457193,162156,1649348649750072254,world,0.0239900965244,0.0030572579708,0.372217446566,0.0386780537665,-0.0604330934584,-0.00197329139337,0.997420728207
1649348649785322079,162157,1649348649755466060,world,0.0249660331756,0.00344049022533,0.37167596817,0.0211593024433,-0.0582733526826,-0.0157815814018,0.997951686382
1649348649792829896,162158,1649348649763205136,world,0.0238084364682,0.00295044481754,0.372644215822,0.0387640409172,-0.0709036812186,-0.000809523742646,0.996729373932
1649348649800008422,162159,1649348649767354894,world,0.0253410302103,0.00544220302254,0.371071070433,0.0054400046356,-0.0641732290387,-0.00836732890457,0.997888863087
1649348649809884564,162160,1649348649773070357,world,0.0256616324186,0.00622792076319,0.372129172087,0.0223840437829,-0.0356716066599,0.00308682443574,0.999108195305
1649348649812422564,162161,1649348649779704409,world,0.0248408317566,0.00472010858357,0.372542262077,0.0299060624093,-0.0370498821139,-0.00610222108662,0.998847186565
1649348649815138868,162162,1649348649784526044,world,0.0258401893079,0.00414103968069,0.370101243258,0.00261187972501,-0.0410932339728,-0.0160122718662,0.999023616314
1649348649820818192,162163,1649348649790872162,world,0.0260532144457,0.00329863885418,0.369638979435,0.00202663592063,-0.0567366108298,-0.0229847468436,0.998122513294
1649348649827505974,162164,1649348649797130110,world,0.0237778946757,0.0040974766016,0.372181028128,0.0296461116523,-0.0521735399961,-0.000158541355631,0.998197972775
1649348649832694946,162165,1649348649802985958,world,0.0248890314251,0.00645408779383,0.371102392673,0.015161680989,-0.0329635515809,-0.0139918765053,0.999243617058
1649348649838539914,162166,1649348649808924438,world,0.0247453209013,0.00399063387886,0.370688319206,0.01842790097,-0.0458735898137,-0.00600236654282,0.99875921011
1649348649850122746,162167,1649348649815329129,world,0.0252940077335,0.00538971973583,0.372837036848,0.0294649414718,-0.0514115579426,-0.00590063817799,0.998225450516
1649348649853966624,162168,1649348649823584295,world,0.0246263444424,0.00385268987156,0.370416790247,0.019751213491,-0.0334671027958,-0.00941692385823,0.999200284481
1649348649857715646,162169,1649348649828353284,world,0.0269375536591,0.00260345777497,0.369422793388,0.0146783767268,-0.0584124103189,-0.018530767411,0.998012602329
1649348649863042966,162170,1649348649833496938,world,0.0241183824837,0.00348490895703,0.372181028128,0.0364795178175,-0.0767637044191,-0.00372144533321,0.996374845505
1649348649872670717,162171,1649348649838267932,world,0.0250430312008,0.00738006783649,0.371286094189,0.0142826642841,-0.03208944574,-0.015198983252,0.999267399311
1649348649878062742,162172,1649348649845205650,world,0.0240468494594,0.00547329429537,0.372251987457,0.0334496088326,-0.0401178188622,-0.0038818565663,0.998627364635
1649348649884561485,162173,1649348649853727088,world,0.0275610126555,0.0043826312758,0.372484952211,0.023066630587,-0.0437359586358,-0.0060264240019,0.998758614063
1649348649888865821,162174,1649348649856173763,world,0.0249687358737,0.00569928623736,0.37124556303,0.015072693117,-0.0481333136559,-0.009550656192,0.998681604862
1649348649892054660,162175,1649348649861924702,world,0.0243980418891,0.00394210917875,0.372373074293,0.0346657112241,-0.0616105720401,-0.00397717114538,0.997490227222
1649348649898818887,162176,1649348649868772786,world,0.0264892224222,0.00425592623651,0.370034217834,-5.04994568473e-05,-0.0306509267539,-0.00389081891626,0.999522566795
1649348649908074222,162177,1649348649875863860,world,0.0270215775818,0.00377541244961,0.372062474489,0.0312845408916,-0.0460473373532,-0.0253967922181,0.998126268387
1649348649912352696,162178,1649348649881904602,world,0.0253178346902,0.00498109869659,0.37054246664,0.00411016074941,-0.0350603349507,-0.00836570560932,0.999341785908
1649348649915989445,162179,1649348649886358688,world,0.0253929514438,0.00505250040442,0.371743232012,0.0181968845427,-0.0338489301503,-0.0191055946052,0.999078691006
1649348649920698727,162180,1649348649891347016,world,0.0260692276061,0.00511834071949,0.371418893337,0.0170974172652,-0.0378847494721,-0.0161423292011,0.999005436897
1649348649926666769,162181,1649348649897262642,world,0.0242083687335,0.00385774159804,0.373465746641,0.0372088998556,-0.0163260400295,-0.0123880635947,0.99909734726
1649348649932405232,162182,1649348649903130817,world,0.0256633441895,0.00478094676509,0.369102954865,0.00533790374175,0.00842486973852,-0.0107847452164,0.999892175198
1649348649940336970,162183,1649348649909984406,world,0.0241919215769,0.00351722235791,0.372325956821,0.0367771759629,-0.0564594194293,-0.002262953436,0.9977247715
1649348649944168866,162184,1649348649914737825,world,0.0246728137136,0.0042691626586,0.372163712978,0.029337419197,-0.0396380238235,-0.000150979612954,0.998783349991
1649348649952167015,162185,1649348649921980858,world,0.0236964281648,0.00400711596012,0.372426867485,0.0309231095016,-0.0618573315442,-0.000120973236335,0.997605860233
1649348649957533258,162186,1649348649927998080,world,0.0238764863461,0.00449035875499,0.372439801693,0.0280010960996,-0.058907430619,0.000879356171936,0.997870326042
1649348649963115071,162187,1649348649933701975,world,0.0249562375247,0.00548925437033,0.372764974833,0.0267280191183,-0.0374298430979,-0.00876641180366,0.998903274536
1649348649971587849,162188,1649348649938897784,world,0.0245994906873,0.00506467744708,0.370942801237,0.0133632132784,-0.0594853833318,-0.00339276669547,0.998134016991
1649348649975855706,162189,1649348649944357478,world,0.0253535751253,0.00592218805104,0.371901452541,0.017848642543,-0.0392451360822,-0.013744561933,0.998975634575
1649348649980635652,162190,1649348649950834331,world,0.0246300324798,0.00457129906863,0.37186473608,0.0353191010654,-0.0505585409701,-0.000523314345628,0.998096287251
1649348649987694820,162191,1649348649956443443,world,0.0234710332006,0.00390826631337,0.372550070286,0.0341362766922,-0.0702221691608,0.00138429692015,0.99694621563
1649348649992646042,162192,1649348649962352650,world,0.024091348052,0.00378247560002,0.372504174709,0.0337381400168,-0.0610445998609,-0.00332976365462,0.997559130192
1649348649998085089,162193,1649348649968479417,world,0.0239806957543,0.00429524807259,0.372219949961,0.0288485586643,-0.0521424375474,-0.00158579437993,0.998221635818
1649348650007336140,162194,1649348649977201075,world,0.0240839011967,0.00446852995083,0.371633023024,0.0269582085311,-0.017832165584,0.000427805935033,0.999477386475
1649348650017878707,162195,1649348649987000021,world,0.0247429274023,0.00648617232218,0.371455222368,0.00490702316165,-0.0390912592411,-0.0208086725324,0.999006927013
1649348650020897205,162196,1649348649987068964,world,0.0258679855615,0.00671021174639,0.373066484928,0.0254269056022,-0.032894667238,-0.014537954703,0.999029636383
1649348650025961793,162197,1649348649991886260,world,0.0242571327835,0.0026195961982,0.372523069382,0.0339553281665,-0.072490260005,-0.00622200919315,0.99677157402
1649348650031897642,162198,1649348650000099301,world,0.0256454758346,0.00452142208815,0.371092826128,0.0122494334355,-0.0550698079169,-0.0084711080417,0.998371481895
1649348650036898797,162199,1649348650004605212,world,0.0239128340036,0.00533565273508,0.371582150459,0.0151967862621,-0.0268101990223,-0.0134256454185,0.999434947968
1649348650042178337,162200,1649348650012129165,world,0.0255025587976,0.00601677363738,0.366363912821,-0.0146011412144,-0.0324520282447,-0.0052412734367,0.999352991581
1649348650046986104,162201,1649348650017415309,world,0.024140086025,0.00556543515995,0.372497409582,0.0298334471881,-0.0320230461657,-0.00454271584749,0.999031543732
1649348650056744435,162202,1649348650026569732,world,0.0245066080242,0.00513851316646,0.372726678848,0.0282466653734,-0.0418684408069,-0.00576748000458,0.998707175255
1649348650063535849,162203,1649348650027831188,world,0.0238462425768,0.00295083969831,0.372314155102,0.0382763817906,-0.0740722641349,-0.00130105647258,0.996517181396
1649348650068213240,162204,1649348650037631663,world,0.0254220589995,0.00523983407766,0.370750367641,0.00643707811832,-0.0272347461432,-0.00956702977419,0.999562621117
1649348650076887420,162205,1649348650046363870,world,0.0273360405117,0.00287472712807,0.370827138424,0.0155006665736,-0.0533163957298,-0.0194121934474,0.998268723488
1649348650079414182,162206,1649348650047166372,world,0.0252843033522,0.00584679935127,0.372519910336,0.0254852250218,-0.0335879810154,-0.0130355348811,0.999025762081
1649348650084642322,162207,1649348650054103849,world,0.0250634271652,0.00511004636064,0.373801738024,0.0236697494984,-0.0613306500018,-0.00418453896418,0.997828066349
1649348650088642259,162208,1649348650057246312,world,0.0261135455221,0.00383566482924,0.373703449965,0.044892013073,-0.0693314298987,-0.0279327332973,0.996191620827
1649348650093178880,162209,1649348650063364055,world,0.0238480493426,0.00344227347523,0.372380435467,0.0367844924331,-0.0698737874627,-0.00160520861391,0.996876180172
1649348650100443225,162210,1649348650070495555,world,0.0246634986252,0.00468030013144,0.372403770685,0.0287651494145,-0.0489331148565,-0.00680840341374,0.998364627361
1649348650106783386,162211,1649348650074715832,world,0.0247480981052,0.00537216942757,0.372337609529,0.026538733393,-0.047542899847,-0.00689089344814,0.998492896557
1649348650110847746,162212,1649348650081260733,world,0.0250381510705,0.00517105124891,0.371944576502,0.0227432735264,-0.0559959374368,-0.013661920093,0.998078405857
1649348650118394735,162213,1649348650087310065,world,0.0247279256582,0.00278100301512,0.371695160866,0.027468373999,-0.0437749326229,0.00689196167514,0.998639941216
1649348650124241599,162214,1649348650094119739,world,0.0279709398746,0.00316226552241,0.372351020575,0.029520470649,-0.052992656827,-0.0252695418894,0.997838616371
1649348650129174667,162215,1649348650099017490,world,0.0247320253402,0.00401808135211,0.372609168291,0.0258517079055,-0.0250736959279,-0.00356315006502,0.999345004559
1649348650134720052,162216,1649348650104644056,world,0.0253977887332,0.00470660161227,0.370552092791,0.00667596096173,-0.042508225888,-0.0152363907546,0.998957633972
1649348650140753622,162217,1649348650110718024,world,0.0246769785881,0.00405423948541,0.372037798166,0.0240193605423,-0.0496343448758,-0.00792401935905,0.998447179794
1649348650148568415,162218,1649348650118549287,world,0.0239151585847,0.00329562858678,0.37240922451,0.0369659438729,-0.0675886496902,-0.00236050924286,0.997025549412
1649348650154785071,162219,1649348650122953586,world,0.0250330138952,0.00478430604562,0.371429622173,0.0203848276287,-0.065082244575,-0.00473116943613,0.997660517693
1649348650160991059,162220,1649348650129137202,world,0.026169853285,0.00434594554827,0.372404962778,0.0161782614887,-0.0246493928134,0.00874598883092,0.999526977539
1649348650164146520,162221,1649348650133949092,world,0.0254370775074,0.00583417573944,0.370930731297,0.0243239849806,-0.0433068014681,-0.00772077776492,0.998735845089
1649348650179268749,162222,1649348650141232485,world,0.0250413529575,0.00400386145338,0.373295247555,0.0387995876372,-0.036846280098,-0.0363008826971,0.997907519341
1649348650179274266,162223,1649348650148100806,world,0.0250951908529,0.0051720039919,0.372127443552,0.0154655417427,-0.0895681902766,-0.00382903707214,0.995853304863
1649348650182764780,162224,1649348650153043607,world,0.0245374236256,0.00445869844407,0.370376467705,0.0143423862755,-0.0585175827146,-0.00290543353185,0.998179137707
1649348650188301367,162225,1649348650158072381,world,0.0260992124677,0.00466721318662,0.368485748768,-0.0283007714897,-0.0321298241615,0.000268759322353,0.999082922935
1649348650195115790,162226,1649348650163514486,world,0.024182671681,0.00450138235465,0.372594386339,0.030681412667,-0.0539132878184,-0.00254014064558,0.998070955276
1649348650199481554,162227,1649348650169227931,world,0.0246413145214,0.00495089590549,0.370673507452,0.0151523211971,-0.0289257876575,0.0186166875064,0.999293386936
1649348650208885852,162228,1649348650176274757,world,0.0243221167475,0.0046932217665,0.373335033655,0.0355484485626,-0.052451942116,-0.00016230501933,0.997990548611
1649348650212274886,162229,1649348650183000396,world,0.0253443010151,0.00464991806075,0.37235891819,0.0247216988355,-0.0532773733139,-0.00734702125192,0.998246729374
1649348650217462829,162230,1649348650187944920,world,0.0250963196158,0.00521299568936,0.371431440115,0.014630286023,-0.0491872355342,-0.0144097320735,0.998578429222
1649348650223656944,162231,1649348650193657885,world,0.0239348784089,0.00439770473167,0.37184587121,0.0256273634732,-0.0461179316044,-0.000774987565819,0.998606920242
1649348650228892867,162232,1649348650199221121,world,0.0236464850605,0.00315151782706,0.372653514147,0.0378784053028,-0.0794248357415,-0.000165753313922,0.996120929718
1649348650234634456,162233,1649348650204979265,world,0.0270087458193,0.00294138304889,0.371172398329,0.015349493362,-0.039959166199,-0.0139051778242,0.998986661434
1649348650242001763,162234,1649348650212105291,world,0.0247019138187,0.00669396948069,0.371360123158,0.00843785423785,-0.0254207216203,-0.0189179610461,0.999462246895
1649348650248184570,162235,1649348650218657488,world,0.025345267728,0.00437111454085,0.372564703226,0.0271610338241,-0.053018707782,-0.0100025692955,0.998174011707
1649348650252239479,162236,1649348650222569099,world,0.0245926212519,0.00419736653566,0.372293204069,0.0340043976903,-0.0492524467409,-0.00387225812301,0.998199880123
1649348650262112162,162237,1649348650231938812,world,0.0246437992901,0.00385522260331,0.371797651052,0.0310948956758,-0.0566432364285,-0.00775448419154,0.997880041599
1649348650265611645,162238,1649348650234795373,world,0.0261561293155,0.00434178346768,0.37228423357,0.0237372033298,-0.0592493452132,-0.0118852658197,0.997890233994
1649348650270240319,162239,1649348650240619892,world,0.0241364408284,0.00440041301772,0.372110784054,0.0266067385674,-0.0429981611669,-0.00403998978436,0.998712658882
1649348650280245711,162240,1649348650247618146,world,0.024775898084,0.00432424899191,0.369664788246,-0.00265536294319,-0.041670948267,-0.00696756737307,0.999103665352
1649348650284583784,162241,1649348650254319184,world,0.0240796133876,0.00325142708607,0.372187852859,0.0375862196088,-0.0735438913107,-0.00255061709322,0.996580243111
1649348650288486979,162242,1649348650258595589,world,0.0261377822608,0.00502327503636,0.369184762239,-0.00126347574405,-0.0402009934187,0.00517218792811,0.999177455902
1649348650293756924,162243,1649348650264298920,world,0.0248534828424,0.00498006679118,0.372119158506,0.0249983835965,-0.0410565957427,-0.00772672053427,0.998814165592
1649348650300470116,162244,1649348650271117937,world,0.0255418028682,0.00463547371328,0.371957212687,0.0248513873667,-0.0337092615664,-0.0206211358309,0.998909831047
1649348650306780012,162245,1649348650277139573,world,0.0261008050293,0.00447915308177,0.370409488678,0.00730888592079,-0.0373940952122,-0.0155688459054,0.99915266037
1649348650313063015,162246,1649348650283275763,world,0.0240308120847,0.00295614358038,0.372145205736,0.0390677973628,-0.0640926063061,-0.00169981527142,0.997177541256
1649348650319051470,162247,1649348650289294581,world,0.0253004990518,0.00361358886585,0.372308045626,0.02222507447,-0.0684311613441,-0.0178877208382,0.997247934341
1649348650323678675,162248,1649348650293453696,world,0.0249302089214,0.00580533361062,0.367497980595,-0.0175654832274,-0.0078355986625,-0.00195099809207,0.999813139439
1649348650328874445,162249,1649348650299541647,world,0.0249773524702,0.00552824093029,0.373885244131,0.024485681206,-0.0667716637254,-0.00750081054866,0.997439563274
1649348650335980219,162250,1649348650306272816,world,0.0251890011132,0.00514523964375,0.371155619621,0.00831273663789,-0.0646967962384,-0.00799307972193,0.997838377953
1649348650342400147,162251,1649348650312985807,world,0.0243696160614,0.00377203524113,0.372379392385,0.0353687405586,-0.0569265931845,-0.0035265723709,0.997745454311
1649348650349233039,162252,1649348650318177952,world,0.0255525056273,0.00289071700536,0.372054457664,0.0310150794685,-0.0421570539474,-0.0118169747293,0.998559653759
1649348650354112290,162253,1649348650324271835,world,0.0239947009832,0.00373006099835,0.372654348612,0.0341037884355,-0.0653374791145,-0.000439378782175,0.997280240059
1649348650363887264,162254,1649348650333275776,world,0.0237734466791,0.00433749705553,0.372281074524,0.0312652774155,-0.0509487017989,0.000288453535177,0.998211741447
1649348650370727142,162255,1649348650336171247,world,0.0241072010249,0.00310702691786,0.37120705843,0.0310480333865,-0.0508311651647,-0.0165024679154,0.998088181019
1649348650373390071,162256,1649348650342915369,world,0.0245661921799,0.00316455657594,0.372482925653,0.0330025777221,-0.0558256134391,-0.00235795020126,0.997892200947
1649348650376771882,162257,1649348650347477154,world,0.0246544089168,0.00480142515153,0.373302668333,0.0429144315422,-0.0559003837407,-0.00855742301792,0.997476935387
1649348650384384910,162258,1649348650354527207,world,0.0264896694571,0.00491086952388,0.370281845331,0.00891203992069,-0.0437333993614,-0.0135384006426,0.998911738396
1649348650389575275,162259,1649348650360001854,world,0.0246973447502,0.00462975772098,0.372665315866,0.0301157124341,-0.0492646321654,-0.0130423987284,0.998246490955
1649348650395157485,162260,1649348650365148111,world,0.0255672577769,0.00571519369259,0.372693896294,0.0265730768442,-0.0348164364696,-0.00932036247104,0.998996973038
1649348650401481630,162261,1649348650372030759,world,0.0256797093898,0.004016389139,0.371050953865,0.0163294710219,-0.0455173961818,-0.0214264504611,0.998600244522
1649348650405981846,162262,1649348650376404807,world,0.0234970543534,0.00394428055733,0.372573435307,0.0340532176197,-0.0693313702941,0.00113319046795,0.99701166153
1649348650416169449,162263,1649348650386585084,world,0.0257940776646,0.00318601331674,0.370856165886,0.0172448400408,-0.0376437939703,-0.0174815598875,0.998989462852
1649348650420616455,162264,1649348650388879702,world,0.0244854558259,0.0047686942853,0.372645795345,0.0282978229225,-0.0378590263426,-0.00690848799422,0.998858511448
1649348650423086097,162265,1649348650394045402,world,0.0252186972648,0.00481954915449,0.370131224394,0.00526153342798,-0.0403296500444,-0.0208312161267,0.9989554286
1649348650429981092,162266,1649348650400316590,world,0.0236537344754,0.00429068459198,0.372789651155,0.0370344184339,-0.0707470923662,-0.000775687978603,0.996806323528
1649348650435995257,162267,1649348650405860461,world,0.0243849474937,0.00391989387572,0.372334480286,0.0351303890347,-0.0520026423037,-0.00272912555374,0.998025119305
1649348650442801365,162268,1649348650412791165,world,0.0256750285625,0.00658095860854,0.370777577162,0.00879155658185,-0.0349553227425,-0.0144848544151,0.999245285988
1649348650447731471,162269,1649348650418055692,world,0.0255358349532,0.00546694686636,0.370501160622,0.00717475032434,-0.0359463170171,-0.0168423000723,0.999186038971
1649348650453794460,162270,1649348650424075808,world,0.0239190477878,0.00428610900417,0.372190177441,0.0288062356412,-0.0480229146779,-0.000972281850409,0.998430371284
1649348650466770253,162271,1649348650436482424,world,0.0268905796111,0.00273063033819,0.372192561626,0.0251646023244,-0.070704318583,-0.0280479993671,0.996785342693
1649348650470801342,162272,1649348650438023061,world,0.0247764214873,0.00453046988696,0.372272193432,0.0294332318008,-0.0394795201719,-0.00680493330583,0.998763620853
1649348650474145951,162273,1649348650443785982,world,0.0243006311357,0.00559948012233,0.371146202087,0.0294595994055,-0.0329450853169,-0.0012962872861,0.999022126198
1649348650478136381,162274,1649348650448400598,world,0.0244983229786,0.00483916047961,0.368833363056,0.000156433103257,-0.0280513670295,-0.00508580356836,0.999593615532
1649348650487098323,162275,1649348650457228765,world,0.0253148209304,0.00281872600317,0.373252183199,0.0362820141017,-0.0466455630958,-0.0207891780883,0.99803596735
1649348650491206859,162276,1649348650459632297,world,0.0246687009931,0.00318409595639,0.372567743063,0.0355755724013,-0.0623335987329,-0.0034372699447,0.997415244579
1649348650495175676,162277,1649348650465605162,world,0.0252226796001,0.00541591923684,0.372168928385,0.0229144245386,-0.0370437502861,-0.0107910400257,0.998992681503
1649348650501426214,162278,1649348650471279978,world,0.0258876215667,0.00437636813149,0.371845602989,0.019199680537,-0.0419812090695,-0.0173742994666,0.998782813549
1649348650507204635,162279,1649348650477348130,world,0.0245488267392,0.00406750151888,0.372147798538,0.0336066745222,-0.0594759620726,-0.00546168116853,0.997648954391
1649348650516658621,162280,1649348650483602727,world,0.0247738808393,0.00100554723758,0.37053757906,0.0184643995017,-0.0520142279565,-0.0215938445181,0.998242139816
1649348650520747006,162281,1649348650489131944,world,0.0263403821737,0.00273962854408,0.372414320707,0.0303468331695,-0.0450040325522,-0.0127462306991,0.998444497585
1649348650524473217,162282,1649348650494841175,world,0.0247590243816,0.00718792807311,0.372037351131,0.0201615970582,-0.0292410384864,-0.0120267728344,0.999296665192
1649348650531157743,162283,1649348650501405816,world,0.023859007284,0.00397882284597,0.372976541519,0.0340863652527,-0.0133873894811,-0.00375041901134,0.99932217598
1649348650537130119,162284,1649348650506926500,world,0.0255127288401,0.00561063131317,0.371334224939,0.0168748516589,-0.038659427315,-0.00148902484216,0.999108910561
1649348650544316367,162285,1649348650512891708,world,0.0244038868695,0.00387572450563,0.372359126806,0.0350962281227,-0.0525354668498,-0.00288346013986,0.997997999191
1649348650549907966,162286,1649348650518489964,world,0.0259534474462,0.00251621194184,0.370614886284,0.012608689256,-0.0474696271122,-0.0150590445846,0.998679637909
1649348650555169388,162287,1649348650525265878,world,0.025641925633,0.00422806618735,0.371568143368,0.0126136392355,-0.0738197788596,-0.0170909054577,0.997045457363
1649348650566163556,162288,1649348650530445031,world,0.0247147586197,0.00688551366329,0.3719188869,0.0204169042408,-0.0296941176057,-0.0117991166189,0.999280869961
1649348650571975478,162289,1649348650540948727,world,0.0273045282811,0.00356706976891,0.371422469616,0.0206104554236,-0.0583279542625,-0.0300137251616,0.997633397579
1649348650575513337,162290,1649348650542367418,world,0.0239666365087,0.00296033616178,0.372320771217,0.0397940054536,-0.0650360807776,-0.00145575299393,0.997088134289
1649348650578961418,162291,1649348650548806904,world,0.0258741360158,0.0053238440305,0.369782596827,0.0046200924553,-0.0428784117103,-0.0181274432689,0.998905181885
1649348650589302897,162292,1649348650558767437,world,0.0240607727319,0.00416812812909,0.372318655252,0.0262658912688,-0.0586699023843,-0.00496906973422,0.997919440269
1649348650593330715,162293,1649348650560212987,world,0.0264854989946,0.00318048754707,0.372950792313,0.0388329178095,-0.0650493577123,-0.00403839861974,0.99711805582
1649348650597998655,162294,1649348650566369677,world,0.0257205590606,0.00406808499247,0.371763944626,0.0203325413167,-0.0376182161272,-0.0189456809312,0.998905718327
1649348650601907005,162295,1649348650572127353,world,0.0264339894056,0.0043321121484,0.373077809811,0.0331389121711,-0.0441939011216,-0.0219977386296,0.998230814934
1649348650610553051,162296,1649348650578442094,world,0.0237155351788,0.00694847712293,0.372064679861,0.0388013496995,-0.0761170908809,0.00248588551767,0.996340572834
1649348650619260162,162297,1649348650586233208,world,0.0250130929053,0.00500349653885,0.372185826302,0.0253258645535,-0.0380873121321,-0.00340984319337,0.998947679996
1649348650622608394,162298,1649348650591821121,world,0.0262426305562,0.00416650855914,0.372341066599,0.023666748777,-0.0430217199028,-0.0326956100762,0.998258590698
1649348650628845866,162299,1649348650598307074,world,0.026568915695,0.00549611914903,0.372603833675,0.0227313823998,-0.0379668585956,-0.0169609002769,0.998876512051
1649348650633179059,162300,1649348650602381734,world,0.0244956240058,0.00401184568182,0.372302055359,0.0343255624175,-0.0521492399275,-0.00363879813813,0.99804264307
1649348650637705148,162301,1649348650607670208,world,0.0252676215023,0.00411913124844,0.37113982439,0.0224584508687,-0.0506513379514,-0.00862513948232,0.998426675797
1649348650643604169,162302,1649348650614085200,world,0.0227879937738,0.00506178243086,0.372880369425,0.0470598228276,-0.00508021470159,0.00480529619381,0.998867630959
1649348650649692686,162303,1649348650619543156,world,0.0250503327698,0.00393367558718,0.372081667185,0.0220732819289,-0.0351339653134,-0.00249596335925,0.999135732651
1649348650656663947,162304,1649348650626416045,world,0.026951149106,0.00800267141312,0.367230445147,-0.00913487188518,-0.0730771198869,-0.00701796682552,0.997259795666
1649348650660499001,162305,1649348650630936562,world,0.024162273854,0.0040094582364,0.372549563646,0.0334001258016,-0.0570433326066,-0.00321088382043,0.997807741165
1649348650670173192,162306,1649348650637610026,world,0.0238651931286,0.00230948417448,0.371456563473,0.0248348228633,-0.0558815039694,-0.00906583014876,0.998087406158
1649348650672611853,162307,1649348650643023571,world,0.0239092316478,0.00412844168022,0.372744321823,0.0457096807659,-0.0465541705489,-0.00504085002467,0.997856736183
1649348650677911234,162308,1649348650648567031,world,0.0250545125455,0.00375316245481,0.371126174927,0.00677470583469,-0.037079308182,-0.0142890308052,0.999187231064
1649348650684280107,162309,1649348650654905855,world,0.0250858366489,0.00313176680356,0.372005611658,0.0176924858242,-0.03533757478,-0.024745060131,0.998912453651
1649348650690432069,162310,1649348650660878318,world,0.0254514645785,0.00490179704502,0.372803509235,0.0328203029931,-0.0222113635391,0.00156760786194,0.999213278294
1649348650696504652,162311,1649348650666558520,world,0.0249598380178,0.00525144208223,0.372790843248,0.0247413460165,-0.0429304465652,-0.00991145242006,0.998722553253
1649348650703687426,162312,1649348650672605323,world,0.0248946826905,0.00522284815088,0.372608244419,0.0253439210355,-0.039274983108,-0.00964996963739,0.998860418797
1649348650711972995,162313,1649348650681081089,world,0.023907776922,0.00352695956826,0.372499912977,0.0342723503709,-0.0503545701504,-0.000688131607603,0.998143017292
1649348650714564134,162314,1649348650684374443,world,0.0242340676486,0.00304705440067,0.372778654099,0.0361477397382,-0.057383351028,-0.000570391770452,0.997697532177
1649348650726311306,162315,1649348650693622939,world,0.0241981707513,0.00596525659785,0.369904875755,0.010052472353,-0.0570381060243,0.00755246309564,0.998292863369
1649348650726355601,162316,1649348650696495578,world,0.0236968006939,0.00392268039286,0.372912943363,0.0349593833089,-0.0756730362773,-0.000240581139224,0.996519684792
1649348650731882993,162317,1649348650702111031,world,0.0254878941923,0.00559084350243,0.372183680534,0.0230224654078,-0.0373766347766,-0.011779085733,0.998966574669
1649348650738408987,162318,1649348650708942451,world,0.0268044918776,0.00550155807287,0.371485441923,0.017296584323,-0.0487051680684,-0.016487210989,0.998527407646
1649348650745731087,162319,1649348650716044507,world,0.0254040863365,0.00372006837279,0.372431457043,0.0257172621787,-0.0691602453589,-0.0141838779673,0.997173249722
1649348650753741124,162320,1649348650723126829,world,0.0238902680576,0.00389406527393,0.372496575117,0.026844529435,-0.0772415697575,-0.0034810139332,0.996644854546
1649348650759045254,162321,1649348650726261853,world,0.0251846853644,0.0052562430501,0.372051686049,0.0152359772474,-0.0769442021847,-0.00723186554387,0.996892809868
1649348650762372905,162322,1649348650731763554,world,0.0251056291163,0.00624454440549,0.371138125658,0.0152688343078,-0.0493923574686,-0.00276796449907,0.998658895493
1649348650773002152,162323,1649348650742450045,world,0.0244484785944,0.00617301044986,0.37075227499,0.0182317961007,-0.0386854372919,-0.0129070421681,0.999001801014
1649348650775854035,162324,1649348650743954282,world,0.0257563889027,0.00441611139104,0.369283735752,-0.00568904122338,-0.0379486083984,-0.00568683305755,0.999247312546
1649348650779883600,162325,1649348650749421943,world,0.0236974433064,0.00339765753597,0.372305542231,0.0350817814469,-0.0611546635628,0.000458438153146,0.997511565685
1649348650790996076,162326,1649348650758965503,world,0.0257467869669,0.00342662422918,0.371433705091,0.0276078172028,-0.0407761745155,-0.00719386106357,0.998760938644
1649348650796326388,162327,1649348650766766667,world,0.0257406588644,0.00423976359889,0.369919002056,0.0110916979611,-0.0358694456518,-0.0141112916172,0.999195277691
1649348650799040869,162328,1649348650767857935,world,0.0263874046504,0.00318816700019,0.37302288413,0.0379810519516,-0.0309298709035,-0.0133002791554,0.998711168766
1649348650802682251,162329,1649348650772955842,world,0.0253217499703,0.00481061683968,0.371396422386,0.0174402538687,-0.0379458479583,-0.00760949170217,0.999098598957
1649348650808338557,162330,1649348650779015903,world,0.0251793526113,0.00547766312957,0.372576028109,0.0256545487791,-0.0363228544593,-0.00928888097405,0.998967587948
1649348650815593626,162331,1649348650785201531,world,0.0237980671227,0.00318025285378,0.372633159161,0.0384048335254,-0.0749500244856,-0.000969113607425,0.99644702673
1649348650824459896,162332,1649348650790719230,world,0.0241715312004,0.00635574152693,0.37256103754,0.0270957928151,-0.0301517061889,-0.00523926690221,0.999164283276
1649348650826824248,162333,1649348650796944251,world,0.0258025880903,0.00508910045028,0.371194034815,0.0126744890586,-0.0411986112595,-0.0124836200848,0.998992621899
1649348650832693418,162334,1649348650803462435,world,0.0242034588009,0.00491341529414,0.372380644083,0.0195914171636,-0.0717488974333,-0.0038940012455,0.997222721577
1649348650839697461,162335,1649348650809941825,world,0.0239656958729,0.00507387146354,0.372565567493,0.0220502819866,-0.0824072062969,-0.000373286573449,0.996354758739
1649348650847246333,162336,1649348650816795021,world,0.0238129366189,0.0048788995482,0.372643500566,0.0349818170071,-0.0478528700769,-0.0024115589913,0.998238801956
1649348650850421727,162337,1649348650821352248,world,0.0254572890699,0.00396979460493,0.370468348265,-0.00735077168792,-0.0127663202584,-0.00473485980183,0.999880313873
1649348650856449161,162338,1649348650826269372,world,0.025160798803,0.0057645952329,0.371290057898,0.0156897548586,-0.0398859977722,-0.00570838805288,0.999064743519
1649348650863174675,162339,1649348650832979821,world,0.024735532701,0.00371709163301,0.369622021914,0.00999983679503,-0.0302904397249,-0.00507053220645,0.999478340149
1649348650870620730,162340,1649348650838141426,world,0.0258386302739,0.00394723610952,0.369845271111,0.0177173987031,-0.0567127503455,-0.0170375164598,0.998088002205
1649348650877286374,162341,1649348650846666858,world,0.0256760139018,0.00648285495117,0.371587187052,0.0126717854291,-0.0321393348277,-0.0199631024152,0.99920374155
1649348650881516671,162342,1649348650850148089,world,0.025904385373,0.00571317411959,0.372196853161,0.0196936354041,-0.0472731888294,-0.0151665536687,0.998572766781
1649348650887002313,162343,1649348650856029577,world,0.0253932569176,0.00480366917327,0.372030735016,0.0219261888415,-0.0490593463182,-0.00865441653877,0.998517751694
1649348650902051509,162344,1649348650869485271,world,0.0238209981471,0.00431985268369,0.371347904205,0.022165004164,-0.0608596727252,0.0114247426391,0.997834861279
1649348650904794147,162345,1649348650870699701,world,0.0241156127304,0.0041126110591,0.3722615242,0.0325214639306,-0.0383493043482,-0.00992437824607,0.998685777187
1649348650904816481,162346,1649348650874203177,world,0.0252352058887,0.0022901808843,0.368412107229,-0.0177467819303,-0.00478216493502,-0.0259065199643,0.999495446682
1649348650910731736,162347,1649348650880418892,world,0.0247988197953,0.00594474421814,0.371253401041,0.00349483266473,-0.0432392954826,-0.00610928144306,0.999040067196
1649348650915436537,162348,1649348650885717266,world,0.0261647757143,0.00414790725335,0.371183991432,0.0135190850124,-0.0448743738234,-0.0217473190278,0.998664438725
1649348650925420654,162349,1649348650891911506,world,0.0248879846185,0.0057230880484,0.369419187307,-0.00468972325325,-0.0186797138304,0.00146373338066,0.999813497066
1649348650929082895,162350,1649348650897905900,world,0.0243345797062,0.00436693709344,0.371089071035,0.0187079701573,-0.0489445403218,-0.00130991858896,0.998625457287
1649348650933327115,162351,1649348650903369729,world,0.0263029076159,0.00403774529696,0.370061963797,0.00250381580554,-0.0358913131058,-0.0138420807198,0.999256789684
1649348650939111898,162352,1649348650909441640,world,0.0256776642054,0.00632286863402,0.370759993792,0.031051972881,-0.0520123206079,-0.00768338888884,0.998134016991
1649348650945207815,162353,1649348650915019085,world,0.0249507967383,0.00337021704763,0.37359303236,0.0513912029564,-0.0460889190435,-0.00545962154865,0.997599601746
1649348650951956324,162354,1649348650921609415,world,0.0255291871727,0.00572865596041,0.372010827065,0.0212308466434,-0.0361907184124,-0.0124395247549,0.999041974545
1649348650956917589,162355,1649348650926892866,world,0.0246981456876,0.003939058166,0.373082727194,0.0408176854253,-0.0453362762928,-0.0102874003351,0.998084545135
1649348650964732719,162356,1649348650934558103,world,0.0269083045423,0.00310905068181,0.371585309505,0.0273054838181,-0.0548232160509,-0.028841258958,0.997705876827
1649348650969613818,162357,1649348650939344268,world,0.0248680580407,0.00741814868525,0.371474325657,0.0154082104564,-0.0295335203409,-0.0142149860039,0.99934399128
1649348650976350325,162358,1649348650944975902,world,0.0238966308534,0.00329664116725,0.372609436512,0.0384974703193,-0.0715924054384,-0.00157275167294,0.996689617634
1649348650986492280,162359,1649348650952609350,world,0.0247388463467,0.00602645799518,0.372218996286,0.0233342982829,-0.0380304008722,-0.0068616871722,0.99898058176
1649348650989702424,162360,1649348650956673468,world,0.0257091764361,0.00424955133349,0.371538132429,0.0177794955671,-0.0488629862666,-0.0169220212847,0.998503923416
1649348650993192353,162361,1649348650962584415,world,0.0250149592757,0.00643491139635,0.36842378974,-8.37459519971e-05,-0.0232173129916,-0.00187952246051,0.999728739262
1649348650999259602,162362,1649348650969335380,world,0.0248776227236,0.0046185371466,0.372308015823,0.0321530401707,-0.0463801883161,-0.00525860348716,0.998392522335
1649348651004729958,162363,1649348650974392680,world,0.0251398812979,0.00288293859921,0.371898114681,0.0419247038662,-0.053162548691,-0.000190558363101,0.997705459595
