%time,field.header.seq,field.header.stamp,field.header.frame_id,field.pose.position.x,field.pose.position.y,field.pose.position.z,field.pose.orientation.x,field.pose.orientation.y,field.pose.orientation.z,field.pose.orientation.w
1649348542242394996,143997,1649348542208360780,world,0.00815962441266,0.003059721319,0.368708342314,-0.0115776332095,-0.0207516606897,-0.0195951275527,0.999525606632
1649348542242408454,143998,1649348542211155720,world,0.00860757753253,0.00354623375461,0.369991987944,-0.00137837801594,-0.0369317904115,-0.0122643262148,0.999241650105
1649348542252505137,143999,1649348542221563971,world,0.0080256415531,0.00268817017786,0.368733406067,-0.0107824942097,-0.0206023212522,-0.02249019593,0.999476671219
1649348542256979142,144000,1649348542223769511,world,0.00818443950266,0.00307174003683,0.368613213301,-0.0128367366269,-0.0219449754804,-0.0184120256454,0.999507248402
1649348542260383468,144001,1649348542228940441,world,0.00844035390764,0.00175046047661,0.367471784353,-0.0343145802617,-0.0351177491248,-0.0298613961786,0.998347401619
1649348542272366288,144002,1649348542238459632,world,0.00738775217906,0.00402437895536,0.369487851858,-0.0146431718022,-0.0288000553846,-0.0157615598291,0.999353647232
1649348542276715034,144003,1649348542244085288,world,0.00816560350358,0.00304533983581,0.368593752384,-0.0131825143471,-0.02187483944,-0.018801080063,0.999497056007
1649348542276749298,144004,1649348542246783438,world,0.00812525115907,0.00314442068338,0.368453502655,-0.0140502573922,-0.0228017233312,-0.0189622212201,0.999461472034
1649348542281527428,144005,1649348542252377826,world,0.00865256600082,0.00411323457956,0.370215684175,-0.0128495860845,-0.0394682623446,-0.0147003373131,0.99903011322
1649348542298829010,144006,1649348542265780764,world,0.00814726017416,0.003017002251,0.368758887053,-0.0118180690333,-0.0208831578493,-0.0185322463512,0.999540269375
1649348542301301188,144007,1649348542270289140,world,0.00845347810537,0.00176348234527,0.367481291294,-0.0363100245595,-0.0349642299116,-0.0294022187591,0.998295843601
1649348542301325574,144008,1649348542270683789,world,0.00808623433113,0.00326538295485,0.368028879166,-0.0177417881787,-0.0110150612891,-0.0134113347158,0.999691963196
1649348542305007572,144009,1649348542275880368,world,0.00678460253403,0.00230417517014,0.372612804174,0.0187667291611,-0.071329832077,-0.0138638885692,0.997179925442
1649348542311602593,144010,1649348542282356569,world,0.00793504808098,0.00304147810675,0.368717581034,-0.0113891046494,-0.0206883382052,-0.0183688625693,0.999552369118
1649348542319561611,144011,1649348542289999270,world,0.00801452621818,0.00266371644102,0.36871150136,-0.0102873565629,-0.0209283251315,-0.0226358305663,0.999471783638
1649348542322827162,144012,1649348542293923123,world,0.007941451855,0.00300889788195,0.368728429079,-0.011717909947,-0.0205649770796,-0.0196756850928,0.999526262283
1649348542329481754,144013,1649348542300052036,world,0.00773730268702,0.00289534032345,0.368717581034,-0.0147030679509,-0.0217169970274,-0.0198709126562,0.999458551407
1649348542335963623,144014,1649348542306520161,world,0.00821971334517,0.00250875670463,0.368745803833,-0.0114499181509,-0.0207061097026,-0.023946531117,0.999433279037
1649348542340894227,144015,1649348542311813344,world,0.00777970580384,0.0022649904713,0.367808669806,-0.0192367304116,-0.0210493765771,-0.0185261033475,0.999421656132
1649348542353978804,144016,1649348542324768974,world,0.00786480307579,0.00332773034461,0.368631064892,-0.0151803055778,-0.0219669919461,-0.0187840722501,0.999466955662
1649348542357225193,144017,1649348542325881989,world,0.00808098819107,0.00306434417143,0.368722081184,-0.0120483646169,-0.0209966842085,-0.0147704957053,0.999597907066
1649348542361418010,144018,1649348542329054124,world,0.008061776869,0.00333276391029,0.368625730276,-0.0108543494716,-0.0214888174087,-0.0182316619903,0.999544024467
1649348542366396427,144019,1649348542336406328,world,0.00787794124335,0.00337645993568,0.368067771196,-0.0204222798347,-0.0102552333847,-0.0162809602916,0.999606311321
1649348542370643305,144020,1649348542341603089,world,0.00788756273687,0.00319211208262,0.368734568357,-0.0124120041728,-0.0211467295885,-0.0189389307052,0.999520003796
1649348542376501307,144021,1649348542346676754,world,0.00824183411896,0.00303719821386,0.368703901768,-0.0123099433258,-0.0208903811872,-0.0194324217737,0.999517202377
1649348542381971432,144022,1649348542352914795,world,0.00756745273247,0.00209891819395,0.368540108204,-0.0100655881688,-0.0218145176768,-0.0238632727414,0.999426543713
1649348542389409820,144023,1649348542359615840,world,0.00798229966313,0.00331898406148,0.368649721146,-0.0150284264237,-0.0221959240735,-0.0181454382837,0.999476015568
1649348542393427633,144024,1649348542364488481,world,0.00807620119303,0.00310448161326,0.368743747473,-0.0124606536701,-0.0209219101816,-0.0185375846922,0.999531626701
1649348542402471798,144025,1649348542372971766,world,0.0080959033221,0.0030572002288,0.368731111288,-0.0113279027864,-0.0212001781911,-0.0147440461442,0.99960231781
1649348542405889975,144026,1649348542376644919,world,0.00844835303724,0.00172499078326,0.367483794689,-0.0346644222736,-0.0351768583059,-0.0301008541137,0.998326063156
1649348542410452782,144027,1649348542382384449,world,0.00766298174858,0.00226060952991,0.367784410715,-0.0196041092277,-0.0211638249457,-0.0235422346741,0.999306619167
1649348542421377019,144028,1649348542391798667,world,0.00781542714685,0.00312040862627,0.370691031218,0.00674958573654,-0.0479101762176,-0.017895296216,0.99866861105
1649348542424409534,144029,1649348542394221632,world,0.00754051469266,0.00313421920873,0.367987036705,-0.0179935395718,-0.0115292957053,-0.016632700339,0.99963337183
1649348542430453105,144030,1649348542400806922,world,0.00818630214781,0.00316878664307,0.368703216314,-0.0126023991033,-0.0209796912968,-0.0140180550516,0.999602198601
1649348542435243881,144031,1649348542406373299,world,0.00846303720027,0.00172202999238,0.367504447699,-0.0352257266641,-0.0346655249596,-0.0299336649477,0.998329341412
1649348542442620788,144032,1649348542413831479,world,0.00785165932029,0.0028018639423,0.368685603142,-0.0115755749866,-0.0210283435881,-0.0220502614975,0.999468743801
1649348542446941562,144033,1649348542418275020,world,0.00900247786194,0.00273587810807,0.369646817446,-0.0146026220173,-0.0365889556706,-0.0111679984257,0.999161362648
1649348542458105894,144034,1649348542426314879,world,0.00763402367011,0.00349763431586,0.368958503008,-0.0137430969626,-0.0210239160806,-0.0222640987486,0.999436616898
1649348542461144910,144035,1649348542429400939,world,0.00791838858277,0.0026697574649,0.368650943041,-0.0174051653594,-0.0226529296488,-0.0217241067439,0.999355852604
1649348542464354896,144036,1649348542435718456,world,0.00687552941963,0.00251565803774,0.372114896774,0.0163113269955,-0.070051625371,-0.0145386001095,0.997304081917
1649348542471733785,144037,1649348542441833013,world,0.00783698167652,0.00313531258143,0.369388312101,-0.00749874440953,-0.0297700557858,-0.0223005861044,0.999279916286
1649348542477006959,144038,1649348542447385013,world,0.00852102879435,0.00354400323704,0.3690289855,-0.00525471474975,-0.0231782048941,-0.0227855164558,0.999457895756
1649348542482532545,144039,1649348542453582018,world,0.0081082675606,0.00306706270203,0.368619740009,-0.0120258675888,-0.0197442211211,-0.0175371598452,0.999578952789
1649348542488477358,144040,1649348542459509099,world,0.00780215952545,0.00368600012735,0.371733397245,0.00259079458192,-0.0581581890583,-0.0180164482445,0.998141467571
1649348542493986091,144041,1649348542465135337,world,0.00801895186305,0.00261392863467,0.368723005056,-0.0105080502108,-0.0209088306874,-0.0230986904353,0.999459266663
1649348542503096275,144042,1649348542474374787,world,0.00805918220431,0.00258697546087,0.367834687233,-0.0179590322077,-0.00756293768063,-0.0240179020911,0.999521672726
1649348542506733880,144043,1649348542477339712,world,0.00765447830781,0.0032457455527,0.368214219809,-0.0183362551033,-0.0128997294232,-0.0171714890748,0.999601244926
1649348542515881019,144044,1649348542486295597,world,0.00808554142714,0.0032979727257,0.368780612946,-0.0128198461607,-0.0201440211385,-0.0193562414497,0.999527454376
1649348542520175340,144045,1649348542489189862,world,0.00818807817996,0.00308232172392,0.368697136641,-0.0113725084811,-0.0208539292216,-0.0195034686476,0.999527573586
1649348542523482603,144046,1649348542494738888,world,0.0082928435877,0.00337822083384,0.369495838881,-0.00853159558028,-0.0336383096874,-0.0164297632873,0.999262690544
1649348542530244558,144047,1649348542501320220,world,0.00847323890775,0.00174484634772,0.367500454187,-0.0352459214628,-0.0348271653056,-0.0293161924928,0.998341321945
1649348542536050820,144048,1649348542507131682,world,0.00742082251236,0.00217897538096,0.368118435144,-0.0108731733635,-0.0246228910983,-0.018842888996,0.999460101128
1649348542542327019,144049,1649348542513415026,world,0.00771784503013,0.00330059090629,0.367906093597,-0.0152872065082,-0.0120550887659,-0.0176912806928,0.999653935432
1649348542549713428,144050,1649348542520797337,world,0.00829462707043,0.00275514507666,0.369449943304,-0.00689674820751,-0.0331948027015,-0.0231612175703,0.99915677309
1649348542565120472,144051,1649348542529211557,world,0.00809892080724,0.00311387563124,0.368730932474,-0.0125084351748,-0.0207112878561,-0.0196821000427,0.999513506889
1649348542565159123,144052,1649348542531967002,world,0.00785520486534,0.00297716958448,0.36870649457,-0.0147712221369,-0.0215694699436,-0.0190974287689,0.999475777149
1649348542568763323,144053,1649348542536264106,world,0.00845657754689,0.00276095280424,0.368576973677,-0.0109071126208,-0.0193786583841,-0.0213736798614,0.999524235725
1649348542573024230,144054,1649348542541791623,world,0.00843105930835,0.00269735604525,0.368689864874,-0.00983488280326,-0.0201376657933,-0.0220922548324,0.999504745007
1649348542577343083,144055,1649348542548154302,world,0.00847810599953,0.00176183658186,0.367459505796,-0.0362268611789,-0.0349930413067,-0.0292885433882,0.998301208019
1649348542583377210,144056,1649348542554089549,world,0.0081343986094,0.00314346631058,0.368723779917,-0.0124441934749,-0.0208145864308,-0.0141149805859,0.999606311321
1649348542589250352,144057,1649348542560178896,world,0.00783636234701,0.00290327519178,0.368708819151,-0.0167860519141,-0.0215883441269,-0.0192695688456,0.999440252781
1649348542594483926,144058,1649348542566626918,world,0.00844831392169,0.00172796729021,0.367481917143,-0.0350461192429,-0.0351021327078,-0.029511930421,0.99833291769
1649348542606470801,144059,1649348542576881395,world,0.00813775788993,0.00313957920298,0.36873832345,-0.0126006565988,-0.0209156516939,-0.014276704751,0.99959987402
1649348542609401617,144060,1649348542577947413,world,0.00786417163908,0.00310305808671,0.368689477444,-0.0142153259367,-0.0215379353613,-0.0190696753561,0.999485135078
1649348542614722948,144061,1649348542585396299,world,0.00792492181063,0.00318633602001,0.368718326092,-0.0124797783792,-0.0212161391973,-0.0190910100937,0.999514758587
1649348542621400838,144062,1649348542592189108,world,0.00807576160878,0.00324643333443,0.368642836809,-0.0150862112641,-0.0221872329712,-0.0174282602966,0.999488115311
1649348542627046802,144063,1649348542597948998,world,0.00815231353045,0.00314504676498,0.368701219559,-0.0121915014461,-0.0209132116288,-0.0140020493418,0.999608874321
1649348542632028358,144064,1649348542603056080,world,0.00805574283004,0.00300743035041,0.368725955486,-0.011245389469,-0.0212006829679,-0.0171718131751,0.99956458807
1649348542636236160,144065,1649348542607273690,world,0.00803616829216,0.00323444535024,0.36963903904,-0.00691111991182,-0.0338384248316,-0.0169383846223,0.999259889126
1649348542641911982,144066,1649348542612976409,world,0.00812392029911,0.00353190233,0.368718475103,-0.0121969096363,-0.0214870851487,-0.0174109190702,0.999543070793
1649348542648787203,144067,1649348542619182554,world,0.00759632885456,0.00256416574121,0.36852517724,-0.0121816173196,-0.0223556905985,-0.0202331412584,0.999471127987
1649348542662459818,144068,1649348542632581805,world,0.00812617875636,0.00340148084797,0.368741482496,-0.0114114489406,-0.0206588543952,-0.0182484462857,0.999554932117
1649348542666001326,144069,1649348542634374952,world,0.00792859774083,0.00305654387921,0.368727236986,-0.0102797644213,-0.0209336970001,-0.0181733686477,0.999562799931
1649348542669464320,144070,1649348542637360729,world,0.0081299142912,0.00311175826937,0.368694722652,-0.0125543093309,-0.0209537781775,-0.0140485614538,0.999602913857
1649348542672075659,144071,1649348542642790711,world,0.00846881233156,0.00213461811654,0.368243247271,-0.0151236848906,-0.0145127093419,-0.0261373762041,0.999438643456
1649348542678998630,144072,1649348542649873373,world,0.00755216600373,0.00218043965288,0.368557363749,-0.0124296369031,-0.0212542358786,-0.0227589253336,0.999437749386
1649348542684033811,144073,1649348542654344334,world,0.00815972685814,0.00316154654138,0.368707060814,-0.0129016991705,-0.0208369027823,-0.0141061758623,0.999600112438
1649348542689262994,144074,1649348542660510646,world,0.00798503216356,0.00317279947922,0.368742734194,-0.0124185243621,-0.0210424177349,-0.0188785679638,0.999523282051
1649348542695955746,144075,1649348542667298581,world,0.00846303626895,0.00176373729482,0.367466568947,-0.0365747213364,-0.0349422693253,-0.0289394427091,0.998300492764
1649348542701254433,144076,1649348542672228482,world,0.00817149505019,0.00282771955244,0.370551019907,-0.0237700529397,-0.0407867133617,-0.0181296486408,0.9987205863
1649348542708761718,144077,1649348542679764343,world,0.00800477899611,0.00264076143503,0.368765830994,-0.0105485608801,-0.020555222407,-0.0223909635097,0.99948233366
1649348542713700400,144078,1649348542684408010,world,0.00821443740278,0.00250148796476,0.368770331144,-0.011465838179,-0.0207932852209,-0.0238300636411,0.999434053898
1649348542719695356,144079,1649348542690198445,world,0.00846827588975,0.0017178064445,0.367507576942,-0.0349542871118,-0.0349317900836,-0.030092086643,0.998324811459
1649348542727255946,144080,1649348542696005365,world,0.00781269278377,0.00247830688022,0.36872702837,-0.0125445919111,-0.0209018867463,-0.023602258414,0.999424159527
1649348542731662816,144081,1649348542702208879,world,0.00840134359896,0.00327494344674,0.368715107441,-0.0132369315252,-0.0219751521945,-0.0140380617231,0.999572336674
1649348542739285454,144082,1649348542710019225,world,0.00770825566724,0.0031430888921,0.368688821793,-0.0131872100756,-0.0216918643564,-0.0190823171288,0.999495625496
1649348542744393329,144083,1649348542715470709,world,0.0080301258713,0.0031093263533,0.368708819151,-0.0127374948934,-0.0209088176489,-0.0165276601911,0.999563634396
1649348542749537289,144084,1649348542720479878,world,0.00801442563534,0.00272862031125,0.368697345257,-0.0112351672724,-0.0206914655864,-0.0216867998242,0.999487638474
1649348542754232293,144085,1649348542725471087,world,0.00815160013735,0.00314904423431,0.368708521128,-0.012873579748,-0.0207827799022,-0.0138646811247,0.999605000019
1649348542763880575,144086,1649348542733072002,world,0.00775314774364,0.00298154586926,0.368715107441,-0.0163115337491,-0.0211228486151,-0.0186828970909,0.999469220638
1649348542769954445,144087,1649348542737912121,world,0.00803855340928,0.00269454438239,0.368683189154,-0.0124945770949,-0.0209062956274,-0.0214927922934,0.99947232008
1649348542774882347,144088,1649348542743701343,world,0.00818462949246,0.00303669529967,0.368679225445,-0.0111321676522,-0.0208882074803,-0.0197668038309,0.999524414539
1649348542779771216,144089,1649348542750339779,world,0.00807129777968,0.00303420750424,0.368702501059,-0.0112473247573,-0.0209684446454,-0.0201891679317,0.999513089657
1649348542784663243,144090,1649348542755510758,world,0.00808210484684,0.00299874972552,0.368572711945,-0.0121822627261,-0.0224214121699,-0.0199817549437,0.999474704266
1649348542792289772,144091,1649348542762922896,world,0.00839721690863,0.00343166757375,0.36843803525,-0.0119731817394,-0.0186481699347,-0.0179567057639,0.999593198299
1649348542798072567,144092,1649348542768195715,world,0.0080157564953,0.00259742490016,0.368606477976,-0.0126026719809,-0.0218875426799,-0.0229974146932,0.999416410923
1649348542803864779,144093,1649348542774802444,world,0.00827566534281,0.00351468776353,0.368686139584,-0.0137610808015,-0.0219289474189,-0.0180549360812,0.999501764774
1649348542812582769,144094,1649348542783491827,world,0.00805076118559,0.00308011635207,0.368730694056,-0.0128426952288,-0.0210886765271,-0.0188170727342,0.999518096447
1649348542817189092,144095,1649348542786427765,world,0.00801236089319,0.00254869926721,0.368667662144,-0.0128378598019,-0.0207311548293,-0.0230333898216,0.999437332153
1649348542824239267,144096,1649348542792034736,world,0.00761007238179,0.00341400667094,0.367733031511,-0.0177555624396,-0.0058175236918,-0.0179267004132,0.999664783478
1649348542829624215,144097,1649348542796778669,world,0.0077384179458,0.00214261026122,0.368672221899,-0.0101035637781,-0.0210170503706,-0.0252069514245,0.99941021204
1649348542831951428,144098,1649348542802810221,world,0.00833665858954,0.0034562794026,0.368796527386,-0.0127679742873,-0.0203181039542,-0.0157092567533,0.999588668346
1649348542839154434,144099,1649348542809499413,world,0.00795309245586,0.00312254601158,0.368696272373,-0.0153878293931,-0.021351646632,-0.0174903906882,0.999500632286
1649348542845768893,144100,1649348542816531871,world,0.00798785779625,0.00350376404822,0.368733882904,-0.0133999940008,-0.0208651516587,-0.0170783158392,0.999546706676
1649348542849895682,144101,1649348542820675005,world,0.00846871640533,0.00173930241726,0.36746314168,-0.0371193364263,-0.0348779074848,-0.0288371033967,0.998285591602
1649348542856854418,144102,1649348542827972044,world,0.00778304925188,0.0029808236286,0.368706941605,-0.0140335746109,-0.0215333625674,-0.0193269662559,0.999482870102
1649348542868161985,144103,1649348542837678894,world,0.00844418536872,0.00172033405397,0.367504030466,-0.034618716687,-0.0350648164749,-0.0296720322222,0.998344421387
1649348542872296838,144104,1649348542838869502,world,0.00755557091907,0.00330720911734,0.369628190994,-0.00657754763961,-0.0362975485623,-0.0203188471496,0.999112784863
1649348542875050247,144105,1649348542843599696,world,0.00808637589216,0.00269507290795,0.368590950966,-0.0123896282166,-0.0221824739128,-0.0232348144054,0.999407172203
1649348542880448217,144106,1649348542851253341,world,0.00806725397706,0.0022784229368,0.368462502956,-0.00890689250082,-0.019731476903,-0.0257810261101,0.999433219433
1649348542884796731,144107,1649348542856133220,world,0.00845794472843,0.00175020005554,0.36747699976,-0.0352469682693,-0.0350137315691,-0.0301234852523,0.998310685158
1649348542891351588,144108,1649348542861861754,world,0.00824469141662,0.00243022991344,0.370901912451,-0.00105225469451,-0.0533210486174,-0.0183995738626,0.998407304287
1649348542896466427,144109,1649348542867536228,world,0.00813824310899,0.00329189701006,0.368762463331,-0.0106904590502,-0.0205832123756,-0.0186734572053,0.999556601048
1649348542903631776,144110,1649348542873949748,world,0.00812111701816,0.00310471700504,0.36872151494,-0.0124540030956,-0.0207406654954,-0.014044594951,0.999608635902
1649348542915684214,144111,1649348542886528652,world,0.00805280171335,0.00261922017671,0.368662923574,-0.012012029998,-0.0207061227411,-0.0224981401116,0.999460279942
1649348542920348553,144112,1649348542886952505,world,0.00800018850714,0.00281479908153,0.368716776371,-0.0107059637085,-0.0208650156856,-0.0210625082254,0.999503076077
1649348542924650321,144113,1649348542892433661,world,0.00820076558739,0.00287793530151,0.36871534586,-0.0118599794805,-0.0210339967161,-0.0203693620861,0.999500930309
1649348542928651931,144114,1649348542897860464,world,0.00755719980225,0.00205681752414,0.368516415358,-0.0106098214164,-0.0218530148268,-0.0237151067704,0.999423623085
1649348542933455632,144115,1649348542904236685,world,0.00823746155947,0.00284319510683,0.369019955397,-0.00689075514674,-0.0265198070556,-0.0224085077643,0.999373376369
1649348542938317935,144116,1649348542909293546,world,0.00798401143402,0.0025038337335,0.368722259998,-0.0118842832744,-0.0209916066378,-0.0235922653228,0.999430716038
1649348542944280347,144117,1649348542915326525,world,0.00819967407733,0.00299205002375,0.368716806173,-0.010960043408,-0.0213714037091,-0.0199246779084,0.999512970448
1649348542950643083,144118,1649348542921567253,world,0.00816033128649,0.00348142487928,0.368725866079,-0.0123794889078,-0.0215197578073,-0.0170221887529,0.999546945095
1649348542956139014,144119,1649348542926950154,world,0.00786255020648,0.00273697520606,0.368702024221,-0.0155281191692,-0.0222408305854,-0.020203191787,0.999427914619
1649348542967990325,144120,1649348542938731860,world,0.00781023362651,0.00321680144407,0.368626058102,-0.0148203521967,-0.0220194850117,-0.020183539018,0.999444007874
1649348542972655248,144121,1649348542939196286,world,0.00815195869654,0.00316244922578,0.368712991476,-0.0110590811819,-0.0208061300218,-0.0191473532468,0.999539017677
1649348542975859738,144122,1649348542944104664,world,0.00800849217921,0.00266369339079,0.368740230799,-0.0102915456519,-0.0208686701953,-0.0227530766279,0.999470293522
1649348542980369219,144123,1649348542951008619,world,0.00762300658971,0.00338537432253,0.368056207895,-0.018367420882,-0.0143413590267,-0.0154208801687,0.999609529972
1649348542987039441,144124,1649348542957024937,world,0.00708689773455,0.00293375551701,0.371585071087,0.00946931168437,-0.060858309269,-0.0143333924934,0.997998654842
1649348542991926837,144125,1649348542962212102,world,0.00786605291069,0.00313413562253,0.368720144033,-0.0151323694736,-0.0214525740594,-0.0185183640569,0.999483883381
1649348542998321598,144126,1649348542968995394,world,0.00773183582351,0.00318730389699,0.36870649457,-0.0135189630091,-0.0211992822587,-0.0181356910616,0.999519407749
1649348543003216048,144127,1649348542974291772,world,0.00800288468599,0.00266491225921,0.368605405092,-0.0123957004398,-0.0219269879162,-0.0227533914149,0.999423801899
1649348543010287408,144128,1649348542980123147,world,0.00814672186971,0.00313865067437,0.368736207485,-0.0124963102862,-0.0207343641669,-0.0139768458903,0.999609291553
1649348543018605207,144129,1649348542986928855,world,0.00819095782936,0.00294958520681,0.36873883009,-0.0131097147241,-0.0207492895424,-0.0192849002779,0.999512791634
1649348543023711370,144130,1649348542995010780,world,0.00809828750789,0.00305920885876,0.368723720312,-0.0120172724128,-0.0208291653544,-0.0148231973872,0.999600946903
1649348543030575974,144131,1649348542999203664,world,0.0083977850154,0.00337147992104,0.368705660105,-0.013768794015,-0.022012449801,-0.0141203803942,0.999563157558
1649348543035012473,144132,1649348543004971676,world,0.00845641363412,0.00170689157676,0.367474853992,-0.0347316153347,-0.0351262390614,-0.0302160345018,0.99832201004
1649348543038908141,144133,1649348543009859406,world,0.0080780480057,0.00325392186642,0.368632316589,-0.013264734298,-0.0218797139823,-0.0196192990988,0.999480128288
1649348543047373368,144134,1649348543018165435,world,0.00802509766072,0.00323942792602,0.368607640266,-0.0125530287623,-0.0220852829516,-0.0168644823134,0.999535083771
1649348543051799284,144135,1649348543022371136,world,0.00785218924284,0.0033462473657,0.368076384068,-0.0221028923988,-0.0107432790101,-0.0149128064513,0.999586820602
1649348543056772272,144136,1649348543027655958,world,0.00797852873802,0.00255185971037,0.368592232466,-0.0121988495812,-0.0221159011126,-0.0242028776556,0.999387979507
1649348543068945597,144137,1649348543033635660,world,0.0078693125397,0.00274674547836,0.368686467409,-0.0159880034626,-0.0220351163298,-0.0201938282698,0.999425411224
1649348543071608654,144138,1649348543040221486,world,0.00742961047217,0.00435302453116,0.368405401707,-0.0189159680158,-0.0137827126309,-0.0173390582204,0.999575793743
1649348543074595036,144139,1649348543044965704,world,0.00768656749278,0.00216107279994,0.368672668934,-0.0117866797373,-0.0206379368901,-0.024434754625,0.999418914318
1649348543080186606,144140,1649348543051088710,world,0.00746877864003,0.00349022564478,0.368254452944,-0.019937120378,-0.0137212751433,-0.0158123914152,0.999582052231
1649348543086117531,144141,1649348543056865648,world,0.00869583897293,0.00264060171321,0.367155998945,-0.0214916616678,0.00103450368624,-0.0213536545634,0.999540388584
1649348543092571440,144142,1649348543063312725,world,0.00825283955783,0.00337193184532,0.368656605482,-0.0130562419072,-0.0221012942493,-0.0156643781811,0.999547839165
1649348543098823311,144143,1649348543069423923,world,0.00814508553594,0.00304466113448,0.368679523468,-0.0125282211229,-0.0210398491472,-0.0139462566003,0.999602854252
1649348543104418474,144144,1649348543074966206,world,0.00806361064315,0.00300394371152,0.368672192097,-0.0117500973865,-0.0211830269545,-0.0192023795098,0.999522209167
1649348543110459193,144145,1649348543081433024,world,0.00787762366235,0.0027433373034,0.368696421385,-0.0154172712937,-0.0223139077425,-0.0203226488084,0.999425530434
1649348543117614099,144146,1649348543086404517,world,0.00763241946697,0.00334239401855,0.368714541197,-0.0238300245255,-0.0168361347169,-0.0171808023006,0.999426543713
1649348543125251064,144147,1649348543092654746,world,0.00759026966989,0.003310801927,0.368684232235,-0.0227735266089,-0.0163485184312,-0.0185518972576,0.999434888363
1649348543129144055,144148,1649348543098301860,world,0.0071898479946,0.00401922035962,0.370241165161,-0.0208577979356,-0.0353721044958,-0.0170492380857,0.999011099339
1649348543137089689,144149,1649348543104529287,world,0.00819177273661,0.00338949658908,0.368652015924,-0.0139289479703,-0.0216407533735,-0.0167513620108,0.999528467655
1649348543140901889,144150,1649348543110143922,world,0.0084744328633,0.00174416077789,0.367494493723,-0.036638237536,-0.0347891673446,-0.0286115370691,0.998312950134
1649348543145951773,144151,1649348543116232932,world,0.00807678513229,0.00309369410388,0.368720978498,-0.0105261104181,-0.0210788231343,-0.019145809114,0.999539077282
1649348543152176779,144152,1649348543122509560,world,0.00789315439761,0.00300488062203,0.36871689558,-0.0123077547178,-0.0210205633193,-0.0190455242991,0.99952185154
1649348543159780070,144153,1649348543130216720,world,0.00817047152668,0.00285852281377,0.369395166636,-0.00430305767804,-0.0303054656833,-0.0234622675925,0.999256014824
1649348543163077427,144154,1649348543133681498,world,0.00816537532955,0.00314461928792,0.368668884039,-0.0138592217118,-0.0214845053852,-0.0188264325261,0.99949580431
1649348543173103466,144155,1649348543142792846,world,0.00822619348764,0.00329962861724,0.368698805571,-0.0115994373336,-0.0217840895057,-0.0142852012068,0.999593377113
1649348543177370532,144156,1649348543145479006,world,0.00843522697687,0.00172802561428,0.367507576942,-0.0351094231009,-0.0348666980863,-0.0294627118856,0.998340427876
1649348543181284648,144157,1649348543152156708,world,0.00809247605503,0.00308004347607,0.368696451187,-0.011877508834,-0.0211847182363,-0.0145520754158,0.999599099159
1649348543186458049,144158,1649348543157591245,world,0.0078838178888,0.00285905320197,0.368697792292,-0.012659101747,-0.0207650028169,-0.0216840896755,0.999469101429
1649348543194665017,144159,1649348543163669220,world,0.00680603506044,0.00240906514227,0.372176855803,0.0177918989211,-0.0704878717661,-0.014673832804,0.997246026993
1649348543198746688,144160,1649348543169331410,world,0.0084501421079,0.00171941204462,0.367473006248,-0.0348656959832,-0.0349609404802,-0.0299576185644,0.998330950737
1649348543204858856,144161,1649348543176215335,world,0.00811080820858,0.0022619785741,0.36990070343,-0.0126329073682,-0.0342722870409,-0.0263147987425,0.998986184597
1649348543210322460,144162,1649348543181519214,world,0.00803113635629,0.00278597953729,0.3679279387,-0.0165951065719,-0.011050991714,-0.0207479596138,0.999585986137
1649348543219023260,144163,1649348543187162299,world,0.00833794940263,0.0033561703749,0.368686467409,-0.0140808932483,-0.0218948405236,-0.0147533528507,0.999552309513
1649348543223040697,144164,1649348543194156847,world,0.00814163871109,0.00312153692357,0.368728548288,-0.0121335061267,-0.0210700817406,-0.0144351897761,0.999600172043
1649348543229499191,144165,1649348543200200366,world,0.0082500744611,0.00255916826427,0.368740051985,-0.0117541095242,-0.0204123426229,-0.0235761329532,0.99944460392
1649348543233809317,144166,1649348543204977700,world,0.00818600039929,0.00326109770685,0.368638724089,-0.0137052554637,-0.0215936582536,-0.0176348611712,0.999517381191
1649348543241432095,144167,1649348543210675010,world,0.00785678159446,0.0033697404433,0.368623554707,-0.0164014901966,-0.0220508035272,-0.0185236986727,0.999450683594
1649348543246175880,144168,1649348543216785645,world,0.00793926324695,0.00309541239403,0.369187027216,-0.00703041022643,-0.0301140509546,-0.017950983718,0.999360561371
1649348543251681280,144169,1649348543222778932,world,0.00777152506635,0.0027293083258,0.369648396969,-0.0225647408515,-0.0283078588545,-0.0227350275964,0.999085962772
1649348543257292196,144170,1649348543228559320,world,0.00772300921381,0.003473788267,0.369232594967,-0.0214641392231,-0.0239330213517,-0.0178886540234,0.999323010445
1649348543263759661,144171,1649348543234818095,world,0.0081288414076,0.00334712443873,0.368745416403,-0.010496805422,-0.0209693722427,-0.0181458704174,0.99956035614
1649348543275320584,144172,1649348543244960317,world,0.00780293950811,0.00313514773734,0.36872190237,-0.0138471173123,-0.0213271677494,-0.0191333871335,0.999493539333
1649348543279480652,144173,1649348543246751258,world,0.00829627551138,0.00322926719673,0.367551624775,-0.0202158261091,-0.00393828330562,-0.0170083753765,0.999643206596
1649348543282638527,144174,1649348543252484529,world,0.00810393784195,0.00339979375713,0.368697047234,-0.0124569954351,-0.0212030056864,-0.0138960080221,0.999601066113
1649348543288011346,144175,1649348543258477737,world,0.00790155306458,0.00325309997424,0.368735998869,-0.0144956000149,-0.0209610518068,-0.0183887854218,0.999506115913
1649348543294278890,144176,1649348543264061643,world,0.0082079032436,0.00334938289598,0.36923378706,-0.00922676920891,-0.0281643960625,-0.0176479332149,0.999404966831
1649348543299616632,144177,1649348543269927011,world,0.0078864581883,0.00278138089925,0.368680536747,-0.0172879882157,-0.0218720585108,-0.0195862241089,0.999419391155
1649348543306952631,144178,1649348543276134606,world,0.00809846166521,0.00312329269946,0.368720173836,-0.0120099456981,-0.0211342647672,-0.014403370209,0.999600827694
1649348543312019376,144179,1649348543282252566,world,0.00818442180753,0.00316304014996,0.36864733696,-0.0132876336575,-0.0217780917883,-0.0195765774697,0.999482929707
1649348543321448967,144180,1649348543287920114,world,0.00765633163974,0.00310834660195,0.368647694588,-0.0134815936908,-0.0218133050948,-0.0190041512251,0.999490618706
1649348543324944216,144181,1649348543294063244,world,0.00841062236577,0.00177970144432,0.367481380701,-0.0357404351234,-0.03485153988,-0.0293209068477,0.998322725296
1649348543329059648,144182,1649348543300078127,world,0.00783243775368,0.00310999248177,0.368598848581,-0.0141669679433,-0.0220590941608,-0.0193052794784,0.999469876289
1649348543335011373,144183,1649348543306070593,world,0.00822863914073,0.00303507898934,0.368965268135,-0.00374695472419,-0.0301795266569,-0.0202060025185,0.999333262444
1649348543344007068,144184,1649348543313182664,world,0.00794917996973,0.00273484550416,0.3687261343,-0.0123065160587,-0.0208882261068,-0.0222472790629,0.999458491802
1649348543347336144,144185,1649348543317653565,world,0.00802337937057,0.00274470611475,0.367021530867,-0.0225751511753,0.00472750095651,-0.0229835435748,0.999469816685
1649348543352912276,144186,1649348543323227899,world,0.00801675114781,0.00281435134821,0.368708610535,-0.0101256016642,-0.0208942275494,-0.0211020298302,0.999507784843
1649348543358411697,144187,1649348543329241263,world,0.00793171208352,0.00290180556476,0.368421971798,-0.00992246251553,-0.0190306603909,-0.0210853982717,0.999547362328
1649348543364476646,144188,1649348543335255514,world,0.0078143812716,0.00291048479266,0.368690997362,-0.0117137497291,-0.0209685787559,-0.0204846542329,0.99950170517
1649348543375384971,144189,1649348543341589749,world,0.00813840329647,0.00311597925611,0.368728339672,-0.0121511276811,-0.021180620417,-0.0140967806801,0.999602496624
1649348543380045101,144190,1649348543348247788,world,0.00817174836993,0.0031480609905,0.368718802929,-0.013046529144,-0.0208405703306,-0.013811015524,0.999602258205
1649348543384130454,144191,1649348543355118478,world,0.00775898294523,0.00317853828892,0.368703335524,-0.0138139873743,-0.0212517548352,-0.0183705501258,0.999509930611
1649348543388021498,144192,1649348543358729274,world,0.00717253005132,0.00357360881753,0.368961930275,-0.0214314814657,-0.0216760151088,-0.0135428253561,0.999443590641
1649348543396633377,144193,1649348543365098529,world,0.00846166070551,0.00176013447344,0.367479503155,-0.0361701063812,-0.0349848307669,-0.0289706978947,0.998312830925
1649348543401698344,144194,1649348543372455054,world,0.00846462883055,0.0017382936785,0.367486864328,-0.0353623218834,-0.0350463539362,-0.0297165233642,0.998317778111
1649348543405492802,144195,1649348543376392163,world,0.00833622924984,0.00332646700554,0.368722617626,-0.0136232990772,-0.02174747549,-0.0150447450578,0.999557554722
1649348543413435038,144196,1649348543384189406,world,0.00809710286558,0.0033680992201,0.36872574687,-0.0136776594445,-0.0208728183061,-0.0169492978603,0.999544918537
1649348543421462360,144197,1649348543389100521,world,0.00812064856291,0.00347946444526,0.368772655725,-0.0111332880333,-0.0204232856631,-0.0178780332208,0.999569654465
1649348543429024005,144198,1649348543397745534,world,0.00801892019808,0.00269283214584,0.368690669537,-0.01049305778,-0.0207960624248,-0.0221627429128,0.999482989311
1649348543431931046,144199,1649348543401581335,world,0.00845491420478,0.00171064026654,0.3674916327,-0.0354845933616,-0.0349855981767,-0.0300669502467,0.998304963112
1649348543435745324,144200,1649348543405952376,world,0.0081524644047,0.00306943734176,0.36870598793,-0.0117397112772,-0.0209048409015,-0.0195661466569,0.999521136284
1649348543441449933,144201,1649348543412102455,world,0.0082363365218,0.00250471569598,0.368750423193,-0.0103736324236,-0.0207583028823,-0.024047575891,0.999441504478
1649348543448487691,144202,1649348543418994960,world,0.00698864879087,0.00265397178009,0.371549785137,0.0132456477731,-0.0658721551299,-0.0156299713999,0.997617721558
1649348543454742817,144203,1649348543423764101,world,0.00816855672747,0.00313591095619,0.368723660707,-0.012614111416,-0.0208712406456,-0.0138500323519,0.999606728554
1649348543458738515,144204,1649348543429700503,world,0.00764647731557,0.00323834409937,0.368686825037,-0.0154020981863,-0.0215663462877,-0.0188837777823,0.999470472336
1649348543465206510,144205,1649348543435903900,world,0.00785871688277,0.00286146253347,0.36869302392,-0.0130243012682,-0.0205815918744,-0.0218265131116,0.999465107918
1649348543472193997,144206,1649348543441922239,world,0.00879519619048,0.00309160863981,0.369429409504,-0.00809253007174,-0.0308306068182,-0.0214922837913,0.999260783195
1649348543479591905,144207,1649348543447824068,world,0.00824212096632,0.00334997172467,0.368545889854,-0.0127647714689,-0.0224447771907,-0.016138387844,0.999536335468
1649348543483234192,144208,1649348543453605755,world,0.00848626717925,0.00234090466984,0.36938804388,-0.00820430368185,-0.0319712013006,-0.028070025146,0.999060928822
1649348543488424946,144209,1649348543459445806,world,0.00765567272902,0.00301478663459,0.368660390377,-0.0148236807436,-0.022198677063,-0.0201263744384,0.999441146851
1649348543496272975,144210,1649348543466791548,world,0.0081117041409,0.0032920090016,0.368555247784,-0.0111705223098,-0.0214486960322,-0.0176854413003,0.99955111742
1649348543502413066,144211,1649348543472993704,world,0.0081739416346,0.00291779730469,0.368750691414,-0.0129367718473,-0.0207445900887,-0.0194823574275,0.999511241913
1649348543506343157,144212,1649348543477112377,world,0.00779503770173,0.003083627671,0.368721216917,-0.0140650114045,-0.0214047078043,-0.019045913592,0.999490618706
1649348543515168773,144213,1649348543485146705,world,0.00835338421166,0.00324430409819,0.368745237589,-0.0135957086459,-0.0211934708059,-0.0160239394754,0.99955457449
1649348543519353631,144214,1649348543489493925,world,0.0078742755577,0.00274002784863,0.368715584278,-0.0113706989214,-0.0210431516171,-0.0225387811661,0.999459803104
1649348543527432375,144215,1649348543495919159,world,0.00807314179838,0.00314384466037,0.368654817343,-0.0129999890924,-0.0212523993105,-0.0182088688016,0.999523818493
1649348543537089102,144216,1649348543501130946,world,0.00811275653541,0.00326018361375,0.368733525276,-0.0116914892569,-0.0206570327282,-0.0180984772742,0.999554514885
1649348543541075322,144217,1649348543508774982,world,0.00786522682756,0.00313188694417,0.368724912405,-0.0159945003688,-0.0210806392133,-0.0185265503824,0.99947822094
1649348543546260954,144218,1649348543513227803,world,0.00817943364382,0.00315298559144,0.368727594614,-0.0126362051815,-0.021119710058,-0.0136485500261,0.999603927135
1649348543548685282,144219,1649348543518611261,world,0.00893243867904,0.00245448853821,0.367284059525,-0.0144248288125,0.000609836541116,-0.0214009452611,0.999666750431
1649348543557071916,144220,1649348543527532918,world,0.00770669942722,0.00313774636015,0.368688583374,-0.0153442565352,-0.0217948202044,-0.0191618166864,0.999461114407
1649348543562790472,144221,1649348543530290832,world,0.00802531931549,0.00314308819361,0.368697524071,-0.0120821846649,-0.0213740523905,-0.0135927777737,0.999606132507
1649348543567368371,144222,1649348543536346928,world,0.00804380048066,0.00311341090128,0.36861667037,-0.0132820019498,-0.0217647422105,-0.0213779471815,0.999446332455
1649348543571485706,144223,1649348543541944620,world,0.00806054286659,0.00302086211741,0.368704378605,-0.0118289366364,-0.0211201179773,-0.0149049516767,0.999595880508
1649348543581895938,144224,1649348543552532100,world,0.00785322766751,0.00299711013213,0.368692308664,-0.0147464703768,-0.0216918159276,-0.0190216600895,0.999474942684
1649348543584800693,144225,1649348543554541713,world,0.0080050341785,0.00263940938748,0.368729382753,-0.0101312668994,-0.0206432361156,-0.0228632576764,0.999474167824
1649348543588833307,144226,1649348543559813495,world,0.00807224959135,0.00305467518046,0.368715703487,-0.0118919704109,-0.0212978441268,-0.0188310686499,0.99952507019
1649348543595524983,144227,1649348543565851281,world,0.00797907728702,0.00272814952768,0.368728607893,-0.011120156385,-0.0212829336524,-0.0225958004594,0.99945628643
1649348543603503949,144228,1649348543574151425,world,0.00794638507068,0.00235267239623,0.367291659117,-0.0222079344094,-0.000931445974857,-0.025075674057,0.999438464642
1649348543608602000,144229,1649348543578004832,world,0.0077773607336,0.00306603359058,0.368727773428,-0.0153403719887,-0.0217881686985,-0.0195018686354,0.99945473671
1649348543612897082,144230,1649348543583522334,world,0.00785400159657,0.00317466701381,0.368705570698,-0.0137468250468,-0.0211734231561,-0.0193797498941,0.999493539333
1649348543619540372,144231,1649348543590081871,world,0.00801861379296,0.00350542087108,0.368737339973,-0.0138269644231,-0.0208480283618,-0.0169544722885,0.999543309212
1649348543628287839,144232,1649348543595580972,world,0.00760190887377,0.00248889578506,0.368505269289,-0.0119678918272,-0.0221837814897,-0.0208091344684,0.999465703964
1649348543633041202,144233,1649348543601329275,world,0.00854063685983,0.00201501231641,0.368069916964,-0.0144209507853,-0.012062638998,-0.0276805870235,0.999440073967
1649348543637301014,144234,1649348543607716935,world,0.00813515484333,0.0032041890081,0.368736028671,-0.0113170845434,-0.0207190103829,-0.0189883895218,0.999540984631
1649348543642581804,144235,1649348543613401334,world,0.00753263989463,0.00307490793057,0.368340522051,-0.0122012663633,-0.0187475513667,-0.0140658933669,0.999650835991
1649348543649376368,144236,1649348543619517972,world,0.00753546692431,0.00209448835813,0.368538141251,-0.010055099614,-0.0220516137779,-0.0234700124711,0.999430716038
1649348543656111577,144237,1649348543626099084,world,0.00808395259082,0.00334026594646,0.368656694889,-0.0151686444879,-0.0216179527342,-0.0178828742355,0.999491333961
1649348543659820538,144238,1649348543630873343,world,0.00798003561795,0.00338188861497,0.368626624346,-0.0136022381485,-0.0218400284648,-0.0181688331068,0.999503910542
1649348543666232982,144239,1649348543636882822,world,0.00801103003323,0.00270125991665,0.368718862534,-0.0101750195026,-0.0209857169539,-0.0222617331892,0.999480187893
1649348543671918523,144240,1649348543642800106,world,0.00757532007992,0.0020941037219,0.368551433086,-0.00967266131192,-0.0220302790403,-0.0241267159581,0.999419331551
1649348543683052290,144241,1649348543648615990,world,0.00821184366941,0.00249277194962,0.368754863739,-0.0108819119632,-0.0207682177424,-0.0241139866412,0.999434232712
1649348543686253034,144242,1649348543655269122,world,0.00768694886938,0.00324399257079,0.368684798479,-0.0158203132451,-0.0215485710651,-0.0189066082239,0.99946385622
1649348543689617976,144243,1649348543660582037,world,0.00792361143976,0.00334997219034,0.369455128908,-0.0078590894118,-0.0321491844952,-0.0158585943282,0.999326348305
1649348543695827039,144244,1649348543666523593,world,0.00778433028609,0.00318540493026,0.368707597256,-0.0141366310418,-0.0210811644793,-0.0178746916354,0.999518036842
1649348543703917069,144245,1649348543672259349,world,0.00787661038339,0.00323186721653,0.367560535669,-0.0260069184005,-0.002464533085,-0.0163671504706,0.999524712563
1649348543707696351,144246,1649348543678209047,world,0.00802124664187,0.00277228513733,0.368709027767,-0.0101995952427,-0.0209281034768,-0.021560408175,0.999496459961
1649348543713631820,144247,1649348543684356835,world,0.00777500681579,0.00304062198848,0.368222653866,-0.0192325040698,-0.0130270328373,-0.0163580663502,0.999596357346
1649348543719936122,144248,1649348543690146086,world,0.00817602965981,0.00294118188322,0.368650555611,-0.0120735950768,-0.021887883544,-0.0166882593185,0.999548316002
1649348543730255012,144249,1649348543695875234,world,0.00819546915591,0.00292027997784,0.367564916611,-0.019320115447,-0.0034333281219,-0.0208516307175,0.999590039253
1649348543733501266,144250,1649348543702882182,world,0.00779338320717,0.00303839496337,0.368683874607,-0.015811951831,-0.0219458676875,-0.0191562678665,0.999450564384
1649348543738338442,144251,1649348543708345638,world,0.00791890081018,0.00306291412562,0.368718296289,-0.0112201599404,-0.0209273677319,-0.0183635763824,0.999549388885
1649348543743123822,144252,1649348543713792802,world,0.00805015396327,0.00319776404649,0.368746489286,-0.0144147304818,-0.0210613124073,-0.0178993232548,0.999514102936
1649348543750938055,144253,1649348543719729686,world,0.00868963636458,0.00301530980505,0.369364231825,-0.0058499481529,-0.0307748597115,-0.0220423843712,0.999266207218
1649348543755062927,144254,1649348543725488589,world,0.00775922182947,0.00304495939054,0.368694216013,-0.0132105071098,-0.0212939474732,-0.0192419663072,0.9995008111
1649348543762315508,144255,1649348543731515293,world,0.00830634962767,0.00292434473522,0.368726402521,-0.0124052762985,-0.0205359924585,-0.0204343236983,0.9995033741
1649348543767679478,144256,1649348543737911311,world,0.00824286323041,0.00304394378327,0.369850367308,0.000505598378368,-0.0349016226828,-0.0196664482355,0.99919718504
1649348543772373909,144257,1649348543743304692,world,0.00799584388733,0.00296707847156,0.37026950717,-0.0220475457609,-0.0355070121586,-0.01932868734,0.998939216137
1649348543784331439,144258,1649348543749415135,world,0.00844589620829,0.00176197732799,0.367491334677,-0.0363350436091,-0.0350162088871,-0.0289218854159,0.998307168484
1649348543787544804,144259,1649348543757858297,world,0.00829406455159,0.00331027293578,0.368115395308,-0.0162270497531,-0.0144321387634,-0.0167805533856,0.99962335825
1649348543792481613,144260,1649348543761271313,world,0.0077265878208,0.00294456561096,0.368695914745,-0.0138837676495,-0.02207797952,-0.0198747180402,0.999462306499
1649348543797534354,144261,1649348543767640925,world,0.00798705313355,0.00258930493146,0.368568181992,-0.0130215762183,-0.02205154486,-0.0233782436699,0.999398648739
1649348543802270799,144262,1649348543773059391,world,0.00801584497094,0.00242359400727,0.36872318387,-0.012060363777,-0.0210865754634,-0.0240731686354,0.999415040016
1649348543808719686,144263,1649348543778758428,world,0.00827141758054,0.00271960394457,0.368565320969,-0.00931619200855,-0.0214225780219,-0.0214365068823,0.999497354031
1649348543813881364,144264,1649348543784863096,world,0.00786101259291,0.00298534217291,0.368722349405,-0.0148716736585,-0.0217925999314,-0.0191906057298,0.999467730522
1649348543821721305,144265,1649348543790650338,world,0.00846192892641,0.00373937911354,0.370643824339,-0.0155466953292,-0.0439142547548,-0.0168676301837,0.998771965504
1649348543825176061,144266,1649348543796465312,world,0.0078161470592,0.002662578132,0.368607223034,-0.0131446765736,-0.0218181740493,-0.0198929514736,0.999477624893
1649348543834994277,144267,1649348543804820221,world,0.00784066598862,0.00289938296191,0.368794053793,-0.0119254626334,-0.0239527430385,-0.022095926106,0.999397814274
1649348543838413122,144268,1649348543808512950,world,0.0079203536734,0.00327176135033,0.369631260633,-0.00774975912645,-0.0341128930449,-0.0165772624314,0.999250531197
1649348543843715104,144269,1649348543814725427,world,0.00814647227526,0.00311741512269,0.368722170591,-0.012462596409,-0.0210426039994,-0.0142573975027,0.999599218369
1649348543849738757,144270,1649348543820343840,world,0.0086134057492,0.00287650641985,0.370634377003,-0.0171875972301,-0.0417446158826,-0.0180602204055,0.998817205429
1649348543855777147,144271,1649348543826786445,world,0.00824626162648,0.00313092186116,0.368668615818,-0.0145200416446,-0.0218200385571,-0.0164026860148,0.999521970749
1649348543861280089,144272,1649348543832277498,world,0.00812893547118,0.00332911522128,0.368763178587,-0.0135733438656,-0.0205712392926,-0.0182764939964,0.999529182911
1649348543867583948,144273,1649348543838162999,world,0.00828826520592,0.00361732952297,0.369803309441,-0.0124443462119,-0.0354078188539,-0.0173698179424,0.999144494534
1649348543873454655,144274,1649348543844338338,world,0.00811569299549,0.00288013950922,0.36859279871,-0.0122821610421,-0.0220080167055,-0.0216682795435,0.999447584152
1649348543879933328,144275,1649348543849925949,world,0.00804341677576,0.00259944051504,0.368024915457,-0.014561089687,-0.0134168229997,-0.0221795830876,0.999557971954
1649348543889673583,144276,1649348543860174137,world,0.00787608884275,0.00300904503092,0.368730068207,-0.0145912831649,-0.0215642657131,-0.0189405363053,0.9994815588
1649348543892311131,144277,1649348543862087342,world,0.00775225274265,0.00289818365127,0.368698865175,-0.0148514751345,-0.0216382145882,-0.0199153907597,0.9994571805
1649348543896568689,144278,1649348543867383693,world,0.00813620630652,0.00314187142067,0.368716180325,-0.0126945767552,-0.0208971742541,-0.0140446675941,0.999602437019
1649348543902368467,144279,1649348543873395814,world,0.0080257980153,0.00301813846454,0.368682950735,-0.0120239201933,-0.0214135982096,-0.0139430332929,0.999601125717
1649348543909562991,144280,1649348543880776395,world,0.00859458558261,0.00238469964825,0.369337767363,-0.0031560221687,-0.0305374432355,-0.0229084230959,0.999266147614
1649348543914759260,144281,1649348543885671040,world,0.00821122620255,0.00321247871034,0.368631064892,-0.0139195295051,-0.0217244625092,-0.0181694813073,0.999502062798
1649348543921549344,144282,1649348543891405275,world,0.00825903285295,0.00225503882393,0.36868301034,-0.0145407216623,-0.0197388846427,-0.0262533966452,0.999354720116
1649348543926510416,144283,1649348543897429262,world,0.00771419750527,0.00309119303711,0.368707299232,-0.0141801219434,-0.0214687753469,-0.0188940707594,0.999490439892
1649348543937993218,144284,1649348543907035074,world,0.00823446083814,0.00305817951448,0.368705362082,-0.0110907787457,-0.0207546912134,-0.0195027198642,0.999532878399
1649348543941739337,144285,1649348543909248631,world,0.00778167555109,0.00350103084929,0.369869470596,-0.00235911412165,-0.0367957428098,-0.0203710701317,0.999112427235
1649348543945245933,144286,1649348543915090761,world,0.00808037538081,0.00348432851024,0.36875897646,-0.0109059214592,-0.020867433399,-0.0208835117519,0.999504625797
1649348543950218803,144287,1649348543920975719,world,0.00811165571213,0.00347791076638,0.368762135506,-0.0108369858935,-0.02046366781,-0.0176490899175,0.999576151371
1649348543956735861,144288,1649348543927748541,world,0.00810880120844,0.00331201776862,0.368738174438,-0.0106702819467,-0.0206478219479,-0.018570067361,0.999557495117
1649348543962803264,144289,1649348543932596282,world,0.00807415228337,0.00307587673888,0.368710964918,-0.0120506593958,-0.021031672135,-0.0141482008621,0.999606132507
1649348543967799298,144290,1649348543938458234,world,0.00808027293533,0.00346873165108,0.36874088645,-0.0131691228598,-0.0206622611731,-0.0171436723322,0.99955278635
1649348543973797220,144291,1649348543944692568,world,0.00827244669199,0.00328492186964,0.368732899427,-0.0134696858004,-0.0212340764701,-0.0143941640854,0.999580144882
1649348543979799500,144292,1649348543950500076,world,0.00773184467107,0.00318311690353,0.368690878153,-0.0147995334119,-0.0210391581059,-0.0179783459753,0.999507427216
1649348543992888902,144293,1649348543963062084,world,0.00758757116273,0.00310492399149,0.368649482727,-0.0143262995407,-0.0196780525148,-0.0207313541323,0.999488830566
1649348543997167293,144294,1649348543963514405,world,0.0079790558666,0.00331704923883,0.368641257286,-0.0159977003932,-0.0216384269297,-0.0180085618049,0.99947565794
1649348544000724782,144295,1649348543968478371,world,0.0080579854548,0.00339365238324,0.368724554777,-0.0127376634628,-0.0212125573307,-0.0144165763631,0.999589979649
1649348544003705911,144296,1649348543974452424,world,0.00816448219121,0.00344987493008,0.368765383959,-0.0117706647143,-0.0203801132739,-0.01750148274,0.999569833279
1649348544011248812,144297,1649348543982289547,world,0.00774332555011,0.00295587512664,0.368700712919,-0.0158764775842,-0.0215384587646,-0.019253063947,0.999456524849
1649348544015248202,144298,1649348543985964074,world,0.00828507356346,0.00338687677868,0.368671298027,-0.0134150069207,-0.0220526196063,-0.0150153012946,0.999554097652
1649348544021482949,144299,1649348543992511140,world,0.00814820732921,0.00309709808789,0.368733644485,-0.0110762333497,-0.020670177415,-0.0193317197263,0.999538123608
1649348544027179906,144300,1649348543998338186,world,0.00821609888226,0.00251800427213,0.368755012751,-0.0122440438718,-0.0206857118756,-0.0236636400223,0.999431014061
1649348544039582106,144301,1649348544007744514,world,0.00775049161166,0.00314950500615,0.36871317029,-0.0148927038535,-0.0216589737684,-0.019115453586,0.999471724033
1649348544043005764,144302,1649348544011590463,world,0.00776235992089,0.00377690978348,0.368544727564,-0.0211806390435,-0.0177977494895,-0.0182512085885,0.999450683594
1649348544046974949,144303,1649348544016176690,world,0.00813197065145,0.00280906329863,0.368750095367,-0.011132504791,-0.020795064047,-0.022161109373,0.999476194382
1649348544053380873,144304,1649348544024002251,world,0.00800587981939,0.00258241035044,0.368760347366,-0.0109279565513,-0.0206399504095,-0.0233351308852,0.999454915524
1649348544059353368,144305,1649348544030295511,world,0.00750283477828,0.00217749597505,0.368558138609,-0.0115911224857,-0.0218315068632,-0.0226875450462,0.99943703413
1649348544066955047,144306,1649348544036933342,world,0.0083386329934,0.00263822311535,0.368614256382,-0.00680227484554,-0.0208707898855,-0.0223782137036,0.999508619308
1649348544069923881,144307,1649348544039922915,world,0.00809481088072,0.00306068593636,0.368743091822,-0.0120848361403,-0.0211515780538,-0.0187578462064,0.999527335167
1649348544075628810,144308,1649348544046495002,world,0.00782566517591,0.00249636289664,0.3687736094,-0.012932587415,-0.0205452181399,-0.0244436226785,0.999406397343
1649348544079681267,144309,1649348544050660413,world,0.00785623211414,0.00306217791513,0.368705958128,-0.0152397239581,-0.0214189123362,-0.0189716629684,0.999474465847
1649348544092707149,144310,1649348544057706482,world,0.00802085269243,0.00273427017964,0.368763655424,-0.0122702270746,-0.0205078292638,-0.021499523893,0.999483287334
1649348544096063255,144311,1649348544063884195,world,0.00803020130843,0.00278120720759,0.368609279394,-0.0138620771468,-0.0218260921538,-0.0217620171607,0.999428808689
1649348544100784222,144312,1649348544068766744,world,0.0084739588201,0.00175872514956,0.367470800877,-0.0358277931809,-0.0350417904556,-0.0290786251426,0.998320043087
1649348544104600904,144313,1649348544074940769,world,0.00845287274569,0.00175190984737,0.36750498414,-0.0341712795198,-0.0351020954549,-0.0302724409848,0.99834048748
1649348544109417169,144314,1649348544080389458,world,0.00774302659556,0.00310597009957,0.36871394515,-0.0143177425489,-0.0218465644866,-0.0192952174693,0.999472558498
1649348544116036204,144315,1649348544086697076,world,0.00790068227798,0.00259207701311,0.368587255478,-0.0115580484271,-0.022082708776,-0.0198636576533,0.999492049217
1649348544122043017,144316,1649348544092921894,world,0.00785802584141,0.00280719483271,0.36870059371,-0.0112865641713,-0.0211545024067,-0.0224347449839,0.999460756779
1649348544128203066,144317,1649348544098508795,world,0.00787172745913,0.00302527355962,0.368711590767,-0.0144904851913,-0.0217498205602,-0.0190381594002,0.999477088451
1649348544140563566,144318,1649348544105648497,world,0.00779359275475,0.00221595284529,0.368695825338,-0.0110687119886,-0.0204288102686,-0.0253085270524,0.999409615993
1649348544143811011,144319,1649348544113613316,world,0.00816339813173,0.00295738712884,0.368758380413,-0.0134077183902,-0.0206543114036,-0.0193383619189,0.999509811401
1649348544146647831,144320,1649348544116902185,world,0.00813882984221,0.00318275834434,0.368720620871,-0.0123829934746,-0.0209308136255,-0.0141922775656,0.999603509903
1649348544151068323,144321,1649348544121838401,world,0.00818450562656,0.00313955405727,0.368736445904,-0.0124748386443,-0.0207529459149,-0.0137937609106,0.999611675739
1649348544156990027,144322,1649348544127729401,world,0.00829035043716,0.00254396838136,0.368742257357,-0.0106883123517,-0.0209304317832,-0.0236156024039,0.999444842339
1649348544164488460,144323,1649348544134604384,world,0.00812122132629,0.00301165739074,0.368749439716,-0.0119129018858,-0.0210781879723,-0.0189211480319,0.999527812004
1649348544168507988,144324,1649348544139522557,world,0.00818497315049,0.00301726697944,0.368708580732,-0.0111606512219,-0.0210013538599,-0.0197901260108,0.999521315098
1649348544176303422,144325,1649348544146636776,world,0.00784929469228,0.00272101955488,0.368698835373,-0.0153773361817,-0.0222259797156,-0.0205002184957,0.999424517155
1649348544183345059,144326,1649348544154150702,world,0.00845931936055,0.00171793671325,0.367480993271,-0.0347839333117,-0.0350686535239,-0.0298271887004,0.998333930969
1649348544187343181,144327,1649348544157547796,world,0.00802395120263,0.00299548101611,0.368699878454,-0.0106969671324,-0.0212061330676,-0.0175649598241,0.999563574791
1649348544195915646,144328,1649348544166773394,world,0.00775159802288,0.00287787639536,0.368697792292,-0.0144235314801,-0.0216452106833,-0.0201314203441,0.999458968639
1649348544199695972,144329,1649348544169448166,world,0.00826257560402,0.00351872271858,0.368819415569,-0.0127112204209,-0.0216168221086,-0.0174542274326,0.999533116817
1649348544205029935,144330,1649348544175707449,world,0.00826380215585,0.00252540456131,0.36743029952,-0.0229966919869,-0.00370606873184,-0.0245740264654,0.999426603317
1649348544210657873,144331,1649348544181767786,world,0.00787642970681,0.00310935010202,0.369376391172,-0.00569000840187,-0.030316170305,-0.019720915705,0.99932962656
1649348544216775316,144332,1649348544187636240,world,0.00812688097358,0.0031671624165,0.368725955486,-0.0125008672476,-0.0209353771061,-0.0138949127868,0.999606132507
1649348544223415064,144333,1649348544194264659,world,0.0075443405658,0.00204107142054,0.368544250727,-0.0102377645671,-0.0219469089061,-0.0241524614394,0.999414920807
1649348544228166456,144334,1649348544199235693,world,0.00787969771773,0.00282621383667,0.368725270033,-0.0123560437933,-0.0209348481148,-0.0217123832554,0.999468743801
1649348544234772068,144335,1649348544205524244,world,0.00813249312341,0.00339381047525,0.36873576045,-0.0118702659383,-0.0204637870193,-0.0174135379493,0.999568521976
1649348544243215018,144336,1649348544214149993,world,0.00809795223176,0.00252507510595,0.368177831173,-0.0154489707202,-0.0148002570495,-0.0224683210254,0.999518632889
1649348544248225297,144337,1649348544216718942,world,0.00808320753276,0.00322536961176,0.368751257658,-0.0117790112272,-0.0205507911742,-0.019599724561,0.999527275562
1649348544252066994,144338,1649348544222755617,world,0.00794661603868,0.00277136452496,0.368737697601,-0.0121625149623,-0.0210076719522,-0.0221049357206,0.999460935593
1649348544258258603,144339,1649348544228723358,world,0.00818942673504,0.00305388728157,0.368758678436,-0.0123845804483,-0.0209044441581,-0.0173031855375,0.999555110931
1649348544264467987,144340,1649348544235485031,world,0.0071808421053,0.00297998334281,0.368053108454,-0.0236476603895,-0.00957485381514,-0.0204644482583,0.999465048313
1649348544270160230,144341,1649348544240992218,world,0.0079899225384,0.00245440378785,0.368719786406,-0.0118696428835,-0.0212234016508,-0.0239984281361,0.999416172504
1649348544276828058,144342,1649348544247613434,world,0.0079971505329,0.00277952710167,0.368705362082,-0.0104251857847,-0.0207984428853,-0.0213753264397,0.9995008111
1649348544284547662,144343,1649348544252132754,world,0.00842460617423,0.00176744151395,0.367501467466,-0.0351263992488,-0.0347895100713,-0.029488068074,0.998341858387
1649348544288102538,144344,1649348544258798517,world,0.00809933617711,0.00343184336089,0.368717849255,-0.0124277053401,-0.0213521681726,-0.0135762616992,0.999602615833
1649348544299983333,144345,1649348544268706969,world,0.00726921856403,0.00328464852646,0.371266424656,0.00595906609669,-0.0543765649199,-0.0173051767051,0.998352825642
1649348544303807083,144346,1649348544272174329,world,0.00636975374073,0.00249294796959,0.373829036951,0.028588404879,-0.0832195580006,-0.0145237864926,0.996015250683
1649348544308468252,144347,1649348544275821162,world,0.00836239848286,0.00313321268186,0.371981620789,0.00668446859345,-0.060931045562,-0.0223522484303,0.997869372368
1649348544311676062,144348,1649348544282524314,world,0.0080017503351,0.00282970187254,0.372237414122,0.0104816528037,-0.0598138011992,-0.0211111083627,0.997931301594
1649348544316853299,144349,1649348544287558537,world,0.00848144199699,0.00283468351699,0.371183663607,0.00675519509241,-0.0629961341619,-0.0202900301665,0.997784733772
1649348544323970908,144350,1649348544293845758,world,0.00936794187874,0.0027472677175,0.370224326849,-0.00722246803343,-0.0277051571757,-0.0188786052167,0.999411761761
1649348544328799348,144351,1649348544299932858,world,0.0101719992235,0.00306247267872,0.370056301355,-0.00800226721913,-0.037405308336,-0.0213135704398,0.999040901661
1649348544334888843,144352,1649348544305611897,world,0.0106190545484,0.00232869014144,0.371289640665,-0.00367456139065,-0.00882046390325,-0.0196830090135,0.999760627747
1649348544344736211,144353,1649348544311345851,world,0.0113569181412,0.00237005692907,0.371216267347,-0.00416962290183,-0.00405829725787,-0.0150374602526,0.99987000227
